[
  {
    "address": " Cesta železarjev 6 A, 4270 Jesenice",
    "description": "",
    "id": "1001",
    "lat": "46.4320606",
    "lon": "14.0623146",
    "name": "Upravna enota Jesenice (konferenčna soba št. 227) "
  },
  {
    "address": " Cesta svobode 13, 4260 Bled ",
    "description": "",
    "id": "1002",
    "lat": "46.3687079",
    "lon": "14.1095897",
    "name": "Občina Bled (poročna dvorana)"
  },
  {
    "address": "Triglavska 16, 4264 Bohinjska Bistrica",
    "description": "",
    "id": "1002",
    "lat": "46.27263079999999",
    "lon": "13.9560425",
    "name": "Dom Joža Ažmana"
  },
  {
    "address": "Gorenjska cesta 19, 4240 Radovljica",
    "description": "",
    "id": "1003",
    "lat": "46.3438093",
    "lon": "14.1715796",
    "name": "Občina Radovljica (mala sejna soba) "
  },
  {
    "address": "Slovenski trg 1, 4000 Kranj",
    "description": "",
    "id": "1004",
    "lat": "46.243268",
    "lon": "14.3557455",
    "name": "Mestna občina Kranj "
  },
  {
    "address": "Škofjeloška cesta 18, 4000 Kranj",
    "description": "",
    "id": "1005",
    "lat": "46.2316283",
    "lon": "14.3463998",
    "name": "Šmartinski dom Stražišče"
  },
  {
    "address": "Slovenski trg 1, 4000 Kranj",
    "description": "",
    "id": "1006",
    "lat": "46.243268",
    "lon": "14.3557455",
    "name": "Mestna občina Kranj"
  },
  {
    "address": "Trg svobode 18, 4290 Tržič",
    "description": "",
    "id": "1007",
    "lat": "46.3635438",
    "lon": "14.3089991",
    "name": "Društvo upokojencev Tržič"
  },
  {
    "address": "Mestni trg 15, 4220 Škofja Loka ",
    "description": "",
    "id": "1008",
    "lat": "46.1647809",
    "lon": "14.3070954",
    "name": "Občina Škofja Loka"
  },
  {
    "address": "Česnjica 48, 4228 Železniki",
    "description": "",
    "id": "1009",
    "lat": "46.2261866",
    "lon": "14.1750681",
    "name": "Občina Železniki,"
  },
  {
    "address": "Poljanska cesta 87, 4224 Gorenja vas",
    "description": "",
    "id": "1009",
    "lat": "46.1056606",
    "lon": "14.1385055",
    "name": "Občina Gorenja vas - Poljane"
  },
  {
    "address": "Glavni trg 24, 1240 Kamnik",
    "description": "",
    "id": "1010",
    "lat": "46.2263678",
    "lon": "14.6122718",
    "name": "Občina Kamnik"
  },
  {
    "address": "Študentovska ulica 2, 5280 Idrija",
    "description": "",
    "id": "1011",
    "lat": "46.00128240000001",
    "lon": "14.021122",
    "name": "Upravna enota Idrija (sejna soba) "
  },
  {
    "address": "Tumov drevored 4, 5220 Tolmin",
    "description": "",
    "id": "2001",
    "lat": "46.1830584",
    "lon": "13.7313528",
    "name": "Upravna enota Tolmin"
  },
  {
    "address": "Obala 114 a, 6320 Portorož - Portorose",
    "description": "",
    "id": "2002",
    "lat": "45.502888",
    "lon": "13.6036542",
    "name": "UE Piran"
  },
  {
    "address": "Cesta v Pregavor 3 a, 6310 Izola - Isola",
    "description": "",
    "id": "2003",
    "lat": "45.5299253",
    "lon": "13.6669793",
    "name": "Okrajna volilna komisija"
  },
  {
    "address": "Piranska cesta 2, 6000 Koper - Capodistria",
    "description": "",
    "id": "2004",
    "lat": "45.5442863",
    "lon": "13.7259823",
    "name": "Upravna enota Koper"
  },
  {
    "address": "Piranska cesta 2, 6000 Koper - Capodistria ",
    "description": "",
    "id": "2005",
    "lat": "45.5442863",
    "lon": "13.7259823",
    "name": "Upravna enota Koper"
  },
  {
    "address": "Partizanska cesta 4, 6210 Sežana",
    "description": "",
    "id": "2006",
    "lat": "45.7098424",
    "lon": "13.8740761",
    "name": "Stara stavba Občine Sežana"
  },
  {
    "address": "Gregorčičeva cesta 2, 6250 Ilirska Bistrica",
    "description": "",
    "id": "2007",
    "lat": "45.5673205",
    "lon": "14.2433943",
    "name": "Dom na Vidmu"
  },
  {
    "address": "Gregorčičev drevored 2 a, 6230 Postojna ",
    "description": "",
    "id": "2008",
    "lat": "45.774956",
    "lon": "14.2149413",
    "name": "Kulturni dom Postojna (avla) "
  },
  {
    "address": "Trg Edvarda Kardelja 1, 5000 Nova Gorica",
    "description": "",
    "id": "2009",
    "lat": "45.9572629",
    "lon": "13.6488414",
    "name": "Sedež OVK"
  },
  {
    "address": "Trg Edvarda Kardelja 1, 5000 Nova Gorica",
    "description": "",
    "id": "2010",
    "lat": "45.9572629",
    "lon": "13.6488414",
    "name": "Upravna enota Nova Gorica"
  },
  {
    "address": "Vipavska cesta 11b, 5270 Ajdovščina",
    "description": "",
    "id": "2011",
    "lat": "45.8854392",
    "lon": "13.9115639",
    "name": "Upravna enota Ajdovščina"
  },
  {
    "address": "Tržaška cesta 50A, 1370 Logatec",
    "description": "",
    "id": "3001",
    "lat": "45.9177454",
    "lon": "14.2226931",
    "name": "Upravni center Logatec (mala sejna soba) "
  },
  {
    "address": "Cesta 4. maja 24, 1380 Cerknica",
    "description": "",
    "id": "3001",
    "lat": "45.793266",
    "lon": "14.3666196",
    "name": "UE Cerknica "
  },
  {
    "address": "Stara Vrhnika 1d, 1360 Vrhnika",
    "description": "",
    "id": "3002",
    "lat": "45.9737838",
    "lon": "14.2898717",
    "name": "Upravna enota Vrhnika"
  },
  {
    "address": "Dunajska cesta 18, 1000 Ljubljana ",
    "description": "",
    "id": "3003",
    "lat": "46.0611219",
    "lon": "14.5078957",
    "name": "Gospodarsko razstavišče (Marmorna dvorana) "
  },
  {
    "address": "Dunajska cesta 18, 1000 Ljubljana ",
    "description": "",
    "id": "3004",
    "lat": "46.0611219",
    "lon": "14.5078957",
    "name": "Gospodarsko razstavišče (Marmorna dvorana) "
  },
  {
    "address": "Dunajska cesta 18, 1000 Ljubljana ",
    "description": "",
    "id": "3005",
    "lat": "46.0611219",
    "lon": "14.5078957",
    "name": "Gospodarsko razstavišče (Marmorna dvorana) "
  },
  {
    "address": "Dunajska cesta 18, 1000 Ljubljana ",
    "description": "",
    "id": "3006",
    "lat": "46.0611219",
    "lon": "14.5078957",
    "name": "Gospodarsko razstavišče (Marmorna dvorana) "
  },
  {
    "address": "Dunajska cesta 18, 1000 Ljubljana ",
    "description": "",
    "id": "3007",
    "lat": "46.0611219",
    "lon": "14.5078957",
    "name": "Gospodarsko razstavišče (Marmorna dvorana) "
  },
  {
    "address": "Dunajska cesta 18, 1000 Ljubljana ",
    "description": "",
    "id": "3008",
    "lat": "46.0611219",
    "lon": "14.5078957",
    "name": "Gospodarsko razstavišče (Marmorna dvorana) "
  },
  {
    "address": "Dunajska cesta 18, 1000 Ljubljana ",
    "description": "",
    "id": "3009",
    "lat": "46.0611219",
    "lon": "14.5078957",
    "name": "Gospodarsko razstavišče (Marmorna dvorana) "
  },
  {
    "address": "Dunajska cesta 18, 1000 Ljubljana ",
    "description": "",
    "id": "3010",
    "lat": "46.0611219",
    "lon": "14.5078957",
    "name": "Gospodarsko razstavišče (Marmorna dvorana) "
  },
  {
    "address": "Dunajska cesta 18, 1000 Ljubljana ",
    "description": "",
    "id": "3011",
    "lat": "46.0611219",
    "lon": "14.5078957",
    "name": "Gospodarsko razstavišče (Marmorna dvorana) "
  },
  {
    "address": "Ljubljanska cesta 26, 1330 Kočevje ",
    "description": "",
    "id": "4001",
    "lat": "45.6429164",
    "lon": "14.8557432",
    "name": "Občina Kočevje"
  },
  {
    "address": "Gorenjska cesta 9, 1310 Ribnica",
    "description": "",
    "id": "4002",
    "lat": "45.7411193",
    "lon": "14.7252816",
    "name": "UE Ribnica"
  },
  {
    "address": "Taborska cesta 1, 1290 Grosuplje",
    "description": "",
    "id": "4003",
    "lat": "45.9571274",
    "lon": "14.6533203",
    "name": "Družbeni dom Grosuplje"
  },
  {
    "address": "Sokolska ulica 4, 1295 Ivančna Gorica",
    "description": "",
    "id": "4004",
    "lat": "45.9387023",
    "lon": "14.8044599",
    "name": "Kulturni dom Ivančna Gorica"
  },
  {
    "address": "Dunajska cesta 18, 1000 Ljubljana ",
    "description": "",
    "id": "4005",
    "lat": "46.0611219",
    "lon": "14.5078957",
    "name": "Gospodarsko razstavišče (Marmorna dvorana) "
  },
  {
    "address": "Dunajska cesta 18, 1000 Ljubljana ",
    "description": "",
    "id": "4006",
    "lat": "46.0611219",
    "lon": "14.5078957",
    "name": "Gospodarsko razstavišče (Marmorna dvorana) "
  },
  {
    "address": "Dunajska cesta 18, 1000 Ljubljana ",
    "description": "",
    "id": "4007",
    "lat": "46.0611219",
    "lon": "14.5078957",
    "name": "Gospodarsko razstavišče (Marmorna dvorana) "
  },
  {
    "address": "Dunajska cesta 18, 1000 Ljubljana ",
    "description": "",
    "id": "4008",
    "lat": "46.0611219",
    "lon": "14.5078957",
    "name": "Gospodarsko razstavišče (Marmorna dvorana) "
  },
  {
    "address": "Dunajska cesta 18, 1000 Ljubljana ",
    "description": "",
    "id": "4009",
    "lat": "46.0611219",
    "lon": "14.5078957",
    "name": "Gospodarsko razstavišče (Marmorna dvorana) "
  },
  {
    "address": "Ljubljanska 58, 1230 Domžale",
    "description": "",
    "id": "4010",
    "lat": "46.1380262",
    "lon": "14.5910958",
    "name": "Društvo Lipa Domžale"
  },
  {
    "address": "Ljubljanska 58, 1230 Domžale",
    "description": "",
    "id": "4011",
    "lat": "46.1380262",
    "lon": "14.5910958",
    "name": "Društvo Lipa Domžale"
  },
  {
    "address": "Mestni trg 10, 3230 Šentjur ",
    "description": "",
    "id": "5001",
    "lat": "46.2169736",
    "lon": "15.3939029",
    "name": "Občina Šentjur (sejna soba, pritličje občinske stavbe)"
  },
  {
    "address": "Ljubljanska cesta 1, 3000Celje",
    "description": "",
    "id": "5002",
    "lat": "46.2294595",
    "lon": "15.2609484",
    "name": "UE Celje"
  },
  {
    "address": "Ljubljanska cesta 1, 3000 Celje",
    "description": "",
    "id": "5003",
    "lat": "46.2294595",
    "lon": "15.2609484",
    "name": "UE Celje"
  },
  {
    "address": "Ulica Savinjske čete 5, 3310 Žalec",
    "description": "",
    "id": "5004",
    "lat": "46.250406",
    "lon": "15.1641877",
    "name": "UE Žalec "
  },
  {
    "address": "Ulica Savinjske čete 5, 3310 Žalec",
    "description": "",
    "id": "5005",
    "lat": "46.250406",
    "lon": "15.1641877",
    "name": "UE Žalec"
  },
  {
    "address": "Šmihelska cesta 2, 3330 Mozirje",
    "description": "",
    "id": "5006",
    "lat": "46.3406173",
    "lon": "14.9656081",
    "name": "Upravni center Mozirje (sejna soba Občine Mozirje)"
  },
  {
    "address": "Rudarska 6a, 3320 Velenje ",
    "description": "",
    "id": "5007",
    "lat": "46.3592008",
    "lon": "15.1136985",
    "name": "Upravna enota Velenje (učilnica v II.nadstropju)"
  },
  {
    "address": "Rudarska cesta 6a, 3320 Velenje",
    "description": "",
    "id": "5008",
    "lat": "46.3592008",
    "lon": "15.1136985",
    "name": "Sedež OVK (učilnica, 2. nadstropje)"
  },
  {
    "address": "Meškova ulica 21, 2380 Slovenj Gradec",
    "description": "",
    "id": "5009",
    "lat": "46.5104498",
    "lon": "15.0813811",
    "name": "Upravna enota Slovenj Gradec"
  },
  {
    "address": "Gačnikova pot 5, 2390 Ravne na Koroškem",
    "description": "",
    "id": "5010",
    "lat": "46.5437646",
    "lon": "14.9625755",
    "name": "Občina Ravne na Koroškem"
  },
  {
    "address": "Mariborska cesta 7, 2360 Radlje ob Dravi",
    "description": "",
    "id": "5011",
    "lat": "46.6146927",
    "lon": "15.2246171",
    "name": "Upravna enota Radlje ob Dravi"
  },
  {
    "address": "Meža 10, 2370 Dravograd",
    "description": "",
    "id": "5011",
    "lat": "46.5865739",
    "lon": "15.0248973",
    "name": "UE Dravograd"
  },
  {
    "address": "Zadružna cesta 16, 8340 Črnomelj",
    "description": "",
    "id": "6001",
    "lat": "45.5793511",
    "lon": "15.1959748",
    "name": "Upravna enota Črnomelj"
  },
  {
    "address": "Naselje Borisa Kidriča 14, 8330 Metlika ",
    "description": "",
    "id": "6001",
    "lat": "45.6457365",
    "lon": "15.3171453",
    "name": "Upravna enota Metlika"
  },
  {
    "address": "Defranceschijeva ulica 1, 8000 Novo mesto",
    "description": "",
    "id": "6002",
    "lat": "45.8039406",
    "lon": "15.1647527",
    "name": "Upravna enota Novo mesto"
  },
  {
    "address": "Defranceschijeva ulica 1, 8000 Novo mesto",
    "description": "",
    "id": "6003",
    "lat": "45.8039406",
    "lon": "15.1647527",
    "name": "Upravna enota Novo mesto"
  },
  {
    "address": "Goliev trg 5, 8210 Trebnje ",
    "description": "",
    "id": "6004",
    "lat": "45.9080153",
    "lon": "15.0077466",
    "name": "Občina Trebnje (sejna soba)"
  },
  {
    "address": "Cesta prvih borcev 24a, 8250 Brežice",
    "description": "",
    "id": "6005",
    "lat": "45.9043876",
    "lon": "15.5928268",
    "name": "Upravna enota Brežice "
  },
  {
    "address": "Cesta krških žrtev 14, 8270 Krško",
    "description": "",
    "id": "6006",
    "lat": "45.9665566",
    "lon": "15.4849063",
    "name": "Občina Krško"
  },
  {
    "address": "Glavni trg 19 a, 8290 Sevnica",
    "description": "",
    "id": "6007",
    "lat": "46.00572409999999",
    "lon": "15.3155368",
    "name": "Občina Sevnica"
  },
  {
    "address": "Gledališka pot 2, 1433 Radeče",
    "description": "",
    "id": "6008",
    "lat": "46.0656821",
    "lon": "15.1822528",
    "name": "Kulturni dom"
  },
  {
    "address": "Mestna ulica 2, 3270 Laško",
    "description": "",
    "id": "6008",
    "lat": "46.1537623",
    "lon": "15.2352672",
    "name": "Občina Laško (Energetsko svetovalna pisarna)"
  },
  {
    "address": "Jerebova ulica 14, 1270 Litija",
    "description": "",
    "id": "6009",
    "lat": "46.0573173",
    "lon": "14.8312543",
    "name": "Občina Litija"
  },
  {
    "address": "Pot Vitka Pavliča 5, 1430 Hrastnik ",
    "description": "",
    "id": "6010",
    "lat": "46.1459334",
    "lon": "15.0816062",
    "name": "Upravna zgradba"
  },
  {
    "address": "Mestni trg 4, 1420 Trbovlje",
    "description": "",
    "id": "6010",
    "lat": "46.1562802",
    "lon": "15.0540445",
    "name": "Upravna zgradba Trbovlje"
  },
  {
    "address": "Cesta 9. avgusta 4, 1410 Zagorje ob Savi",
    "description": "",
    "id": "6011",
    "lat": "46.1344034",
    "lon": "14.9952794",
    "name": "Weinbergerjeva hiša"
  },
  {
    "address": "Aškerčev trg 20, 3240 Šmarje pri Jelšah",
    "description": "",
    "id": "7001",
    "lat": "46.2282002",
    "lon": "15.518307",
    "name": "Kulturni dom Šmarje pri Jelšah"
  },
  {
    "address": "Kolodvorska 10, 2310 Slovenska Bistrica",
    "description": "",
    "id": "7002",
    "lat": "46.3919326",
    "lon": "15.5755427",
    "name": "Sprejemna pisarna za osebe s posebnimi potrebami "
  },
  {
    "address": "Stari trg 29, 3210 Slovenske Konjice",
    "description": "",
    "id": "7003",
    "lat": "46.3371712",
    "lon": "15.4221431",
    "name": "Občina Slovenske Konjice (sejna soba)"
  },
  {
    "address": "Slovenski trg 4, 2352 Selnica ob Dravi ",
    "description": "",
    "id": "7004",
    "lat": "46.55150080000001",
    "lon": "15.4928736",
    "name": "Občina Selnica ob Dravi"
  },
  {
    "address": "Kolodvorska ulica 9, 2342 Ruše",
    "description": "",
    "id": "7004",
    "lat": "46.5389767",
    "lon": "15.5101474",
    "name": "Upravna enota Ruše"
  },
  {
    "address": "Vrbanska 97, 2351 Kamnica",
    "description": "",
    "id": "7005",
    "lat": "46.5732436",
    "lon": "15.6153915",
    "name": "Kulturni dom Kamnica"
  },
  {
    "address": "Pohorska cesta 15, 2311 Hoče",
    "description": "",
    "id": "7006",
    "lat": "46.4984827",
    "lon": "15.646824",
    "name": "KD Hoče"
  },
  {
    "address": "Na trati 2, 2000 Maribor ",
    "description": "",
    "id": "7007",
    "lat": "46.5359413",
    "lon": "15.687387",
    "name": "MČ Brezje"
  },
  {
    "address": "Grajska ulica 7, 2000 Maribor",
    "description": "",
    "id": "7008",
    "lat": "46.5610717",
    "lon": "15.6481454",
    "name": "Razstavni salon"
  },
  {
    "address": "Trg revolucije 9, 2000 Maribor",
    "description": "",
    "id": "7009",
    "lat": "46.5545412",
    "lon": "15.6455169",
    "name": "Mestni mladinski svet"
  },
  {
    "address": "Cesta proletarskih brigad 21, 2000 Maribor",
    "description": "",
    "id": "7010",
    "lat": "46.5398936",
    "lon": "15.6437489",
    "name": "JZ Gasilske brigade"
  },
  {
    "address": "Metelkova 63, 2000 Maribor",
    "description": "",
    "id": "7011",
    "lat": "46.5420232",
    "lon": "15.6435372",
    "name": "MČ Tabor"
  },
  {
    "address": "Trg ljudske pravice 5, 9220 Lendava",
    "description": "",
    "id": "8001",
    "lat": "46.56168659999999",
    "lon": "16.455478",
    "name": "Upravna enota Lendava"
  },
  {
    "address": "Ptujska cesta 6, 2270 Ormož",
    "description": "",
    "id": "8002",
    "lat": "46.4073676",
    "lon": "16.1472849",
    "name": "OVK, 8VE, 2 VO (UE Ormož) "
  },
  {
    "address": "Prešernova ulica 20, 9240 Ljutomer",
    "description": "",
    "id": "8003",
    "lat": "46.5206036",
    "lon": "16.1950794",
    "name": "Doma kulture"
  },
  {
    "address": "Kardoševa ulica 2, 9000 Murska Sobota",
    "description": "",
    "id": "8004",
    "lat": "46.6627224",
    "lon": "16.1639805",
    "name": "Mestna občina Murska Sobota (avla sejne dvorane)"
  },
  {
    "address": "Kardoševa ulica 2, 9000 Murska Sobota",
    "description": "",
    "id": "8005",
    "lat": "46.6627224",
    "lon": "16.1639805",
    "name": "Mestna Občina Murska Sobota (avla velike sejne dvorane) "
  },
  {
    "address": "Partizanska cesta 13, 9250 Gornja Radgona",
    "description": "",
    "id": "8006",
    "lat": "46.6775582",
    "lon": "15.9903463",
    "name": "UE Gornja Radgona"
  },
  {
    "address": "Trg osvoboditve 7, 2230 Lenart v Slov. goricah",
    "description": "",
    "id": "8007",
    "lat": "46.5759634",
    "lon": "15.83071",
    "name": "Upravna enota Lenart (avla)"
  },
  {
    "address": "Pesnica pri Mariboru 41, 2211 Pesnica",
    "description": "",
    "id": "8008",
    "lat": "46.6084884",
    "lon": "15.6754652",
    "name": "Večnamenski KTPC Pesnica"
  },
  {
    "address": "Slomškova 10, 2250 Ptuj",
    "description": "",
    "id": "8009",
    "lat": "46.4214918",
    "lon": "15.8719051",
    "name": "Upravna enota Ptuj"
  },
  {
    "address": "Slomškova 10, 2250 Ptuj",
    "description": "",
    "id": "8010",
    "lat": "46.4214918",
    "lon": "15.8719051",
    "name": "Upravna enota Ptuj"
  },
  {
    "address": "Slomškova 10, 2250 Ptuj",
    "description": "",
    "id": "8011",
    "lat": "46.4214918",
    "lon": "15.8719051",
    "name": "Upravna enota Ptuj"
  }
]
