[
  {
    "d34_mid": 17366785,
    "d34_uime": "Dom upokojencev dr. Franceta Berglja, pritličje stavbe C",
    "n8": 101013,
    "address": "Ulica Staneta Bokala 4, 4270 Jesenice",
    "description": "",
    "latitude": "46.442967749999994",
    "longitude": "14.039553374358157"
  },
  {
    "d34_mid": 17588761,
    "d34_uime": "ŠPORTNI PARK, POSLOVALNICA DOMINVEST-a",
    "n8": 103018,
    "address": "Ulica Staneta Žagarja 2b, 4240 Radovljica",
    "description": "",
    "latitude": "46.3480843",
    "longitude": "14.16987856084528"
  },
  {
    "d34_mid": 17688430,
    "d34_uime": "Prostori Društva upokojencev",
    "n8": 108005,
    "address": "Partizanska cesta 1, 4220 Škofja Loka",
    "description": "",
    "latitude": "46.1696257",
    "longitude": "14.3090516"
  },
  {
    "d34_mid": 18128632,
    "d34_uime": "Prostor pri bivši trgovini Ana",
    "n8": 401049,
    "address": "Bosljiva Loka 15a, 1337 Osilnica",
    "description": "",
    "latitude": "45.5125334",
    "longitude": "14.7656422"
  },
  {
    "d34_mid": 18414686,
    "d34_uime": "Dom Podgrad",
    "n8": 405016,
    "address": "Podgrajska cesta 6e, 1000 Ljubljana",
    "description": "",
    "latitude": "46.0541963",
    "longitude": "14.5197004"
  },
  {
    "d34_mid": 17908669,
    "d34_uime": "Družbeni center Krka",
    "n8": 404017,
    "address": "Krka 1d, 1301 Krka",
    "description": "",
    "latitude": "45.8829562",
    "longitude": "14.785639873510073"
  },
  {
    "d34_mid": 18416336,
    "d34_uime": "SŠ za gastronomijo in turizem",
    "n8": 406022,
    "address": "Preglov trg 9, 1000 Ljubljana",
    "description": "",
    "latitude": "46.05254559999999",
    "longitude": "14.5588408"
  },
  {
    "d34_mid": 21208493,
    "d34_uime": "Dom kulture Braslovče I.",
    "n8": 505020,
    "address": "Braslovče 2a, 3314 Braslovče",
    "description": "",
    "latitude": "46.2880914",
    "longitude": "15.0397466"
  },
  {
    "d34_mid": 20768410,
    "d34_uime": "Športni dom Dolič",
    "n8": 509005,
    "address": "Gornji Dolič 42a, 2382 Mislinja",
    "description": "",
    "latitude": "46.4244151",
    "longitude": "15.1869265"
  },
  {
    "d34_mid": 16914061,
    "d34_uime": "ZASTOR d.o.o.",
    "n8": 608004,
    "address": "Spodnja Rečica 87, 3270 Laško",
    "description": "",
    "latitude": "46.163114",
    "longitude": "15.215353"
  },
  {
    "d34_mid": 16586277,
    "d34_uime": "ZOBOZDRAVSTVENI ZAVOD VERTAČNIK",
    "n8": 703003,
    "address": "Dobrava pri Konjicah 3b, 3210 Slovenske Konjice",
    "description": "",
    "latitude": "46.3455834",
    "longitude": "15.412964"
  },
  {
    "d34_mid": 19117910,
    "d34_uime": "ANDY BAR (pri MIČU-TISK)",
    "n8": 806010,
    "address": "Ljutomerska cesta 6, 9250 Gornja Radgona",
    "description": "",
    "latitude": "46.6711124",
    "longitude": "15.9945774"
  },
  {
    "d34_mid": 21014087,
    "d34_uime": "Večnamenska dvorana Vitomarci",
    "n8": 809002,
    "address": "Vitomarci 48a, 2255 Vitomarci",
    "description": "",
    "latitude": "46.5245749",
    "longitude": "15.9350217"
  },
  {
    "d34_mid": 21012661,
    "d34_uime": "Vaški dom Župečja vas",
    "n8": 811024,
    "address": "Župečja vas 29, 2324 Lovrenc na Dravskem polju",
    "description": "",
    "latitude": "46.37909165",
    "longitude": "15.762989179592005"
  },
  {
    "d34_mid": 17028855,
    "d34_uime": "Avditorij Portorož",
    "n8": 202005,
    "address": "Senčna pot 8A, 6320 Portorož",
    "description": "",
    "latitude": "45.5151792",
    "longitude": "13.5832032"
  },
  {
    "d34_mid": 16923826,
    "d34_uime": "Grad Dolnji Zemon ",
    "n8": 207021,
    "address": null,
    "description": "",
    "latitude": "45.546911",
    "longitude": "14.262317"
  },
  {
    "d34_mid": 17601687,
    "d34_uime": "Vrtec Rateče",
    "n8": 101001,
    "address": "Rateče 18, 4283 Rateče Planica",
    "description": "",
    "latitude": "46.49604129999999",
    "longitude": "13.7198115"
  },
  {
    "d34_mid": 17366645,
    "d34_uime": "KS Podkoren",
    "n8": 101002,
    "address": "Podkoren 15, 4280 Podkoren",
    "description": "",
    "latitude": "46.4934356",
    "longitude": "13.7574636"
  },
  {
    "d34_mid": 17366653,
    "d34_uime": "Občina Kr. Gora",
    "n8": 101003,
    "address": "Kolodvorska ulica 1, 4280 Kranjska Gora",
    "description": "",
    "latitude": "46.4847207",
    "longitude": "13.7855433"
  },
  {
    "d34_mid": 20552450,
    "d34_uime": "Dom krajanov Razbor",
    "n8": 607017,
    "address": null,
    "description": "",
    "latitude": "46.059367",
    "longitude": "15.25695"
  },
  {
    "d34_mid": 17265377,
    "d34_uime": "Vaški dom Javorje ",
    "n8": 206069,
    "address": null,
    "description": "",
    "latitude": "46.159461",
    "longitude": "14.177931"
  },
  {
    "d34_mid": 16923834,
    "d34_uime": "Vaški dom Gornji Zemon",
    "n8": 207022,
    "address": null,
    "description": "",
    "latitude": "45.534439",
    "longitude": "14.281814"
  },
  {
    "d34_mid": 16923842,
    "d34_uime": "Pavlica 6",
    "n8": 207023,
    "address": "Pavlica 6, 6244 Podgrad",
    "description": "",
    "latitude": "45.5215225",
    "longitude": "14.1994735"
  },
  {
    "d34_mid": 16923869,
    "d34_uime": "Starod 49 a",
    "n8": 207024,
    "address": "Starod 49a, 6244 Podgrad",
    "description": "",
    "latitude": "45.498622",
    "longitude": "14.194423"
  },
  {
    "d34_mid": 16923877,
    "d34_uime": "Osnovna šola Podgrad",
    "n8": 207025,
    "address": "Podgrad 99b, 6244 Podgrad",
    "description": "",
    "latitude": "45.5240979",
    "longitude": "14.1435366"
  },
  {
    "d34_mid": 16923885,
    "d34_uime": "Vaški dom Podbeže",
    "n8": 207026,
    "address": null,
    "description": "",
    "latitude": "45.546603",
    "longitude": "14.152569"
  },
  {
    "d34_mid": 16923893,
    "d34_uime": "Račice, Na plesišču",
    "n8": 207027,
    "address": null,
    "description": "",
    "latitude": "45.513375",
    "longitude": "14.161514"
  },
  {
    "d34_mid": 16923907,
    "d34_uime": "Vaški dom Sabonje",
    "n8": 207028,
    "address": "Sabonje 47, 6250 Ilirska Bistrica",
    "description": "",
    "latitude": "45.5349694",
    "longitude": "14.182415"
  },
  {
    "d34_mid": 16923915,
    "d34_uime": "Vaški dom Hrušica",
    "n8": 207029,
    "address": "Hrušica 48, 6244 Podgrad",
    "description": "",
    "latitude": "45.5417062",
    "longitude": "14.1194241"
  },
  {
    "d34_mid": 16923923,
    "d34_uime": "Osnovna šola Pregarje",
    "n8": 207030,
    "address": "Pregarje 18, 6243 Obrov",
    "description": "",
    "latitude": "45.5792575",
    "longitude": "14.1316635"
  },
  {
    "d34_mid": 16923931,
    "d34_uime": "Vaška brunarica Prelože",
    "n8": 207031,
    "address": null,
    "description": "",
    "latitude": "45.602419",
    "longitude": "14.132117"
  },
  {
    "d34_mid": 16923940,
    "d34_uime": "Vaški dom Zajelšje",
    "n8": 207032,
    "address": null,
    "description": "",
    "latitude": "45.563561",
    "longitude": "14.158336"
  },
  {
    "d34_mid": 16923958,
    "d34_uime": "Društveni prostori , Tominje",
    "n8": 207033,
    "address": null,
    "description": "",
    "latitude": "45.563225",
    "longitude": "14.173842"
  },
  {
    "d34_mid": 16923966,
    "d34_uime": "Stavba bivše šole Harije",
    "n8": 207034,
    "address": null,
    "description": "",
    "latitude": "45.55405",
    "longitude": "14.199847"
  },
  {
    "d34_mid": 16923974,
    "d34_uime": "Gostilna Pizzeria ŠKORPION ",
    "n8": 207035,
    "address": "Rečica 1a, 6250 Ilirska Bistrica",
    "description": "",
    "latitude": "45.5734707",
    "longitude": "14.2246996"
  },
  {
    "d34_mid": 16923982,
    "d34_uime": "Bivša šolska stavba Ostrožno Brdo",
    "n8": 207036,
    "address": null,
    "description": "",
    "latitude": "45.620267",
    "longitude": "14.124406"
  },
  {
    "d34_mid": 16924008,
    "d34_uime": "Janeževo Brdo 12",
    "n8": 207037,
    "address": "Janeževo Brdo 12, 6255 Prem",
    "description": "",
    "latitude": "45.6093136",
    "longitude": "14.1515519"
  },
  {
    "d34_mid": 16924016,
    "d34_uime": "Kilovče 13",
    "n8": 207038,
    "address": "Kilovče 13, 6255 Prem",
    "description": "",
    "latitude": "45.6192894",
    "longitude": "14.18652"
  },
  {
    "d34_mid": 16924024,
    "d34_uime": "Prem 1",
    "n8": 207039,
    "address": "Prem 1, 6255 Prem",
    "description": "",
    "latitude": "45.604597",
    "longitude": "14.183364"
  },
  {
    "d34_mid": 16924032,
    "d34_uime": "Ratečevo Brdo 2",
    "n8": 207040,
    "address": "Ratečevo Brdo 2, 6255 Prem",
    "description": "",
    "latitude": "45.6184597",
    "longitude": "14.2034915"
  },
  {
    "d34_mid": 16924059,
    "d34_uime": "Bivša OŠ, Prem",
    "n8": 207041,
    "address": null,
    "description": "",
    "latitude": "45.604597",
    "longitude": "14.183364"
  },
  {
    "d34_mid": 16924067,
    "d34_uime": "Čelje - dvorana KS",
    "n8": 207042,
    "address": null,
    "description": "",
    "latitude": "45.580186",
    "longitude": "14.167442"
  },
  {
    "d34_mid": 16924075,
    "d34_uime": "Smrje 56",
    "n8": 207043,
    "address": "Smrje 56, 6255 Prem",
    "description": "",
    "latitude": "45.5942722",
    "longitude": "14.19096"
  },
  {
    "d34_mid": 16924083,
    "d34_uime": "Vaški dom Topolc",
    "n8": 207044,
    "address": null,
    "description": "",
    "latitude": "45.584397",
    "longitude": "14.215822"
  },
  {
    "d34_mid": 16924091,
    "d34_uime": "Mereče 22",
    "n8": 207045,
    "address": "Mereče 22, 6250 Ilirska Bistrica",
    "description": "",
    "latitude": "45.6039934",
    "longitude": "14.2144875"
  },
  {
    "d34_mid": 16926272,
    "d34_uime": "Pomožni vaški prostor Podstenje",
    "n8": 207046,
    "address": null,
    "description": "",
    "latitude": "45.599008",
    "longitude": "14.221003"
  },
  {
    "d34_mid": 16924105,
    "d34_uime": "Prostori KS Šembije",
    "n8": 207047,
    "address": " Šembije 70, 6253 Knežak",
    "description": "",
    "latitude": "45.6025378",
    "longitude": "14.236677"
  },
  {
    "d34_mid": 16924113,
    "d34_uime": "Gasilski dom Knežak",
    "n8": 207048,
    "address": "Knežak 177, 6253 Knežak",
    "description": "",
    "latitude": "45.6241012",
    "longitude": "14.2462145"
  },
  {
    "d34_mid": 16924121,
    "d34_uime": "Na balincu, Bač",
    "n8": 207049,
    "address": null,
    "description": "",
    "latitude": "45.631497",
    "longitude": "14.262494"
  },
  {
    "d34_mid": 16924130,
    "d34_uime": "Gasilski dom  Koritnice",
    "n8": 207050,
    "address": "Koritnice 12, 6253 Knežak",
    "description": "",
    "latitude": "45.6222278",
    "longitude": "14.283914"
  },
  {
    "d34_mid": 17137697,
    "d34_uime": "Osnovna šola Pivka",
    "n8": 208001,
    "address": "Prečna ulica 3, 6257 Pivka",
    "description": "",
    "latitude": "45.6839851",
    "longitude": "14.1935444"
  },
  {
    "d34_mid": 17137719,
    "d34_uime": "Osnovna šola Pivka",
    "n8": 208002,
    "address": "Prečna ulica 3, 6257 Pivka",
    "description": "",
    "latitude": "45.6839851",
    "longitude": "14.1935444"
  },
  {
    "d34_mid": 17137948,
    "d34_uime": "Osnovna šola Pivka",
    "n8": 208003,
    "address": "Prečna ulica 3, 6257 Pivka",
    "description": "",
    "latitude": "45.6839851",
    "longitude": "14.1935444"
  },
  {
    "d34_mid": 17138103,
    "d34_uime": "Gasilski dom Palčje",
    "n8": 208005,
    "address": "Palčje 29, 6257 Pivka",
    "description": "",
    "latitude": "45.6768411",
    "longitude": "14.258989"
  },
  {
    "d34_mid": 17137735,
    "d34_uime": "Kulturni dom Juršče",
    "n8": 208006,
    "address": "Juršče 36, 6257 Pivka",
    "description": "",
    "latitude": "45.664606",
    "longitude": "14.2938076"
  },
  {
    "d34_mid": 17137956,
    "d34_uime": "Gasilski dom Zagorje",
    "n8": 208007,
    "address": "Zagorje 53, 6257 Pivka",
    "description": "",
    "latitude": "45.6410126",
    "longitude": "14.2251047"
  },
  {
    "d34_mid": 17137743,
    "d34_uime": "Osnovna šola Šmihel",
    "n8": 208008,
    "address": "Šmihel 30, 6257 Pivka",
    "description": "",
    "latitude": "45.6514953",
    "longitude": "14.1794581"
  },
  {
    "d34_mid": 17137964,
    "d34_uime": "O.Š. Košana ",
    "n8": 208009,
    "address": "Dolnja Košana 61, 6256 Košana",
    "description": "",
    "latitude": "45.6652181",
    "longitude": "14.1272215"
  },
  {
    "d34_mid": 17137751,
    "d34_uime": "Hiša Požar",
    "n8": 208010,
    "address": "Čepno 15, 6256 Košana",
    "description": "",
    "latitude": "45.6711625",
    "longitude": "14.0965562"
  },
  {
    "d34_mid": 17137760,
    "d34_uime": "Hiša Dolgan Volče",
    "n8": 208011,
    "address": null,
    "description": "",
    "latitude": "46.174242",
    "longitude": "13.711972"
  },
  {
    "d34_mid": 17137891,
    "d34_uime": "Hiša Biščak Anton, Buje",
    "n8": 208012,
    "address": "Buje 5, 6217 Vremski Britof",
    "description": "",
    "latitude": "45.654297",
    "longitude": "14.0871806"
  },
  {
    "d34_mid": 17137972,
    "d34_uime": "Vaška hiša",
    "n8": 208013,
    "address": "Suhorje 23a, 6217 Vremski Britof",
    "description": "",
    "latitude": "45.6379617",
    "longitude": "14.105797"
  },
  {
    "d34_mid": 17138120,
    "d34_uime": "Stara  o.š.",
    "n8": 208014,
    "address": "Kal 90,6257 Pivka",
    "description": "",
    "latitude": "45.6789296",
    "longitude": "14.2542689"
  },
  {
    "d34_mid": 17138162,
    "d34_uime": "Gostilna Miranda",
    "n8": 208015,
    "address": "Selce 9, 6257 Pivka",
    "description": "",
    "latitude": "45.7045206",
    "longitude": "14.1900582"
  },
  {
    "d34_mid": 17137999,
    "d34_uime": "Srednja gozdarska in lesarska šola Postojna",
    "n8": 208016,
    "address": "Tržaška cesta 36, 6230 Postojna",
    "description": "",
    "latitude": "45.7741842",
    "longitude": "14.2069199"
  },
  {
    "d34_mid": 17137778,
    "d34_uime": "Inštitut za raziskovanje Krasa ZRC SAZU",
    "n8": 208017,
    "address": "Titov trg 2, 6230 Postojna",
    "description": "",
    "latitude": "45.7754408",
    "longitude": "14.2129844"
  },
  {
    "d34_mid": 17137905,
    "d34_uime": "Kulturni dom Postojna",
    "n8": 208018,
    "address": "Gregorčičev drevored 2a, 6230 Postojna",
    "description": "",
    "latitude": "45.774956",
    "longitude": "14.2149413"
  },
  {
    "d34_mid": 17138006,
    "d34_uime": "Kulturni dom Postojna",
    "n8": 208019,
    "address": "Gregorčičev drevored 2a, 6230 Postojna",
    "description": "",
    "latitude": "45.774956",
    "longitude": "14.2149413"
  },
  {
    "d34_mid": 17137786,
    "d34_uime": "Gostilna \"Brne\"",
    "n8": 208020,
    "address": "Ljubljanska cesta 32, 6230 Postojna",
    "description": "",
    "latitude": "45.7785524",
    "longitude": "14.2164282"
  },
  {
    "d34_mid": 17137794,
    "d34_uime": "O.Š. Antona Globočnika Postojna",
    "n8": 208021,
    "address": "Cesta na Kremenco 2, 6230 Postojna",
    "description": "",
    "latitude": "45.7726313",
    "longitude": "14.2133768"
  },
  {
    "d34_mid": 17137808,
    "d34_uime": "O.Š. Antona Globočnika Postojna",
    "n8": 208022,
    "address": "Cesta na Kremenco 2, 6230 Postojna",
    "description": "",
    "latitude": "45.7726313",
    "longitude": "14.2133768"
  },
  {
    "d34_mid": 17138111,
    "d34_uime": "O.Š. Antona Globočnika Postojna",
    "n8": 208023,
    "address": "Cesta na Kremenco 2, 6230 Postojna",
    "description": "",
    "latitude": "45.7726313",
    "longitude": "14.2133768"
  },
  {
    "d34_mid": 17138014,
    "d34_uime": "O.Š. Antona Globočnika Postojna",
    "n8": 208024,
    "address": "Cesta na Kremenco 2, 6230 Postojna",
    "description": "",
    "latitude": "45.7726313",
    "longitude": "14.2133768"
  },
  {
    "d34_mid": 17137816,
    "d34_uime": "O.Š. Antona Globočnika Postojna",
    "n8": 208025,
    "address": "Cesta na Kremenco 2, 6230 Postojna",
    "description": "",
    "latitude": "45.7726313",
    "longitude": "14.2133768"
  },
  {
    "d34_mid": 17137824,
    "d34_uime": "Dom upokojencev Postojna",
    "n8": 208027,
    "address": "Rožna ulica 10, 6230 Postojna",
    "description": "",
    "latitude": "45.7657581",
    "longitude": "14.2130804"
  },
  {
    "d34_mid": 17267809,
    "d34_uime": "Tomačevica, Vaški dom",
    "n8": 206029,
    "address": null,
    "description": "",
    "latitude": "45.816711",
    "longitude": "13.773247"
  },
  {
    "d34_mid": 17255118,
    "d34_uime": "Sveto, Stara šola, št.68",
    "n8": 206030,
    "address": null,
    "description": "",
    "latitude": "45.824442",
    "longitude": "13.731122"
  },
  {
    "d34_mid": 17255126,
    "d34_uime": "Škrbina, Stara šola",
    "n8": 206031,
    "address": null,
    "description": "",
    "latitude": "45.842392",
    "longitude": "13.735219"
  },
  {
    "d34_mid": 17255134,
    "d34_uime": "Ivanji grad, Vaški dom",
    "n8": 206032,
    "address": null,
    "description": "",
    "latitude": "45.818708",
    "longitude": "13.709244"
  },
  {
    "d34_mid": 17255142,
    "d34_uime": "Brje pri Komnu, Vaški dom",
    "n8": 206033,
    "address": null,
    "description": "",
    "latitude": "45.784608",
    "longitude": "45.784608"
  },
  {
    "d34_mid": 17255169,
    "d34_uime": "Gorjansko, v kotičku kulturnega doma",
    "n8": 206034,
    "address": null,
    "description": "",
    "latitude": "45.801242",
    "longitude": "13.716467"
  },
  {
    "d34_mid": 17255177,
    "d34_uime": "Brestovica pri Komnu,Vaška skupnost, št.55",
    "n8": 206035,
    "address": null,
    "description": "",
    "latitude": "45.811733",
    "longitude": "13.643011"
  },
  {
    "d34_mid": 17255185,
    "d34_uime": " Zadružni dom",
    "n8": 206036,
    "address": "Štanjel št.59a, 6222 Štanjel",
    "description": "",
    "latitude": "45.82189710000001",
    "longitude": "13.8439788"
  },
  {
    "d34_mid": 17255193,
    "d34_uime": "Vaška skupnost Gornja Branica",
    "n8": 206037,
    "address": "Kodreti 10, 6222 Štanjel",
    "description": "",
    "latitude": "45.8165595",
    "longitude": "13.8886197"
  },
  {
    "d34_mid": 17255207,
    "d34_uime": "Kobjeglava, Vaški dom, št.75",
    "n8": 206038,
    "address": null,
    "description": "",
    "latitude": "45.815897",
    "longitude": "13.80685"
  },
  {
    "d34_mid": 17255215,
    "d34_uime": "Hruševica, Vaški dom",
    "n8": 206039,
    "address": null,
    "description": "",
    "latitude": "45.810631",
    "longitude": "13.828194"
  },
  {
    "d34_mid": 17255223,
    "d34_uime": "Divača, Osnovna šola",
    "n8": 206040,
    "address": "Ulica dr. Bogomira Magajne 4, 6215 Divača",
    "description": "",
    "latitude": "45.6828854",
    "longitude": "13.9678909"
  },
  {
    "d34_mid": 17255231,
    "d34_uime": "Doljne Ležeče, gostilna pri Čotniku",
    "n8": 206041,
    "address": "Dolnje Ležeče 22, 6215 Divača",
    "description": "",
    "latitude": "45.67811469999999",
    "longitude": "13.981866"
  },
  {
    "d34_mid": 17255240,
    "d34_uime": "Naklo, Vaški dom",
    "n8": 206042,
    "address": null,
    "description": "",
    "latitude": "46.274914",
    "longitude": "14.317625"
  },
  {
    "d34_mid": 17255258,
    "d34_uime": "Dane pri Divači, Vaški dom",
    "n8": 206043,
    "address": null,
    "description": "",
    "latitude": "45.649967",
    "longitude": "13.983325"
  },
  {
    "d34_mid": 17255266,
    "d34_uime": "Famlje, v objektu nekdanjega LIV-a",
    "n8": 206044,
    "address": null,
    "description": "",
    "latitude": "45.660908",
    "longitude": "14.020728"
  },
  {
    "d34_mid": 17255274,
    "d34_uime": "v privat hiši Jožeta Čeperja",
    "n8": 206045,
    "address": "Gornje Ležeče 16. 6217 Vremski Britof",
    "description": "",
    "latitude": "45.6672348",
    "longitude": "14.0710269"
  },
  {
    "d34_mid": 17255282,
    "d34_uime": "Barka, Stara osnovna šola",
    "n8": 206046,
    "address": null,
    "description": "",
    "latitude": "45.639936",
    "longitude": "14.05175"
  },
  {
    "d34_mid": 17255304,
    "d34_uime": "Vareje, Vaški dom ob balinišču",
    "n8": 206047,
    "address": null,
    "description": "",
    "latitude": "45.627708",
    "longitude": "14.031564"
  },
  {
    "d34_mid": 17255312,
    "d34_uime": "Senožeče, večnamenska dvorana Rudolfa  Cvetka",
    "n8": 206048,
    "address": null,
    "description": "",
    "latitude": "45.718658",
    "longitude": "14.039503"
  },
  {
    "d34_mid": 17255339,
    "d34_uime": "Zadružni dom Dolenja vas",
    "n8": 206049,
    "address": "Dolenja vas 11, 6224 Senožeče",
    "description": "",
    "latitude": "45.73241160000001",
    "longitude": "14.0111387"
  },
  {
    "d34_mid": 17255347,
    "d34_uime": "Vaški dom Hrpelje",
    "n8": 206050,
    "address": "Na gorici 2a, 6240 Kozina",
    "description": "",
    "latitude": "45.6030156",
    "longitude": "13.9468271"
  },
  {
    "d34_mid": 17255355,
    "d34_uime": "Gostilna Križman",
    "n8": 206051,
    "address": "Tublje pri Hrpeljah 24, 6240 Kozina",
    "description": "",
    "latitude": "45.5942267",
    "longitude": "13.9735839"
  },
  {
    "d34_mid": 17255363,
    "d34_uime": "Vaški dom Krvavi potok",
    "n8": 206052,
    "address": null,
    "description": "",
    "latitude": "45.618961",
    "longitude": "13.909511"
  },
  {
    "d34_mid": 17255371,
    "d34_uime": "Prostori knjižnice ",
    "n8": 206053,
    "address": " Istrska 19,6240 Kozina",
    "description": "",
    "latitude": "45.6062694",
    "longitude": "13.9349054"
  },
  {
    "d34_mid": 17255380,
    "d34_uime": "Vaški dom Vrhpolje",
    "n8": 206054,
    "address": null,
    "description": "",
    "latitude": "45.864656",
    "longitude": "13.962683"
  },
  {
    "d34_mid": 17255401,
    "d34_uime": "Vaški dom Artviže",
    "n8": 206055,
    "address": "Artviže 6a, 6242 Materija",
    "description": "",
    "latitude": "45.6130845",
    "longitude": "14.027297"
  },
  {
    "d34_mid": 17255410,
    "d34_uime": "Prostori krajevne skupnosti Gradišče pri Materiji",
    "n8": 206056,
    "address": null,
    "description": "",
    "latitude": "45.552372",
    "longitude": "14.061547"
  },
  {
    "d34_mid": 17254774,
    "d34_uime": "Gasilski dom",
    "n8": 206057,
    "address": "Bač pri Materiji 28b, 6242 Materija",
    "description": "",
    "latitude": "45.5768915",
    "longitude": "14.0036571"
  },
  {
    "d34_mid": 17255428,
    "d34_uime": "Brezovica, Vaški dom",
    "n8": 206058,
    "address": null,
    "description": "",
    "latitude": "45.948032",
    "longitude": "14.418034"
  },
  {
    "d34_mid": 17255436,
    "d34_uime": "Vaški hiša",
    "n8": 206059,
    "address": "Ocizla 36, 6240 Kozina",
    "description": "",
    "latitude": "45.5902102",
    "longitude": "13.9080572"
  },
  {
    "d34_mid": 17255444,
    "d34_uime": "Balinišče",
    "n8": 206060,
    "address": "6243 Obrov",
    "description": "",
    "latitude": "45.5425337",
    "longitude": "14.0866721"
  },
  {
    "d34_mid": 17255452,
    "d34_uime": "Osnovna šola Prešnica",
    "n8": 206061,
    "address": null,
    "description": "",
    "latitude": "45.571364",
    "longitude": "13.938617"
  },
  {
    "d34_mid": 17255517,
    "d34_uime": "Prostori vaškega doma",
    "n8": 206062,
    "address": " Rodik 6, 6240 Kozina",
    "description": "",
    "latitude": "45.6260408",
    "longitude": "13.9792214"
  },
  {
    "d34_mid": 17255479,
    "d34_uime": "Krajevna skupnost Slivje",
    "n8": 206063,
    "address": "Slivje 1, 6242 Materija",
    "description": "",
    "latitude": "45.5705156",
    "longitude": "14.045087"
  },
  {
    "d34_mid": 17255487,
    "d34_uime": "Vaški dom Tatre",
    "n8": 206064,
    "address": null,
    "description": "",
    "latitude": "45.597833",
    "longitude": "14.086169"
  },
  {
    "d34_mid": 17258303,
    "d34_uime": "Vaški dom Klanec pri Kozini",
    "n8": 206068,
    "address": null,
    "description": "",
    "latitude": "45.593292",
    "longitude": "13.926028"
  },
  {
    "d34_mid": 16923222,
    "d34_uime": "Osnovna šola Antona Žnideršiča Ilirska Bistrica",
    "n8": 207001,
    "address": "Rozmanova ulica 25b, 6250 Ilirska Bistrica",
    "description": "",
    "latitude": "45.5604509",
    "longitude": "14.2498196"
  },
  {
    "d34_mid": 16926256,
    "d34_uime": "Levstikova 5",
    "n8": 207002,
    "address": "Levstikova ulica 5, 6250 Ilirska Bistrica",
    "description": "",
    "latitude": "45.56532869999999",
    "longitude": "14.2487825"
  },
  {
    "d34_mid": 16926264,
    "d34_uime": "Osnovna šola Dragotina Ketteja",
    "n8": 207003,
    "address": "Župančičeva ulica 7, 6250 Ilirska Bistrica",
    "description": "",
    "latitude": "45.5680844",
    "longitude": "14.2444868"
  },
  {
    "d34_mid": 16923621,
    "d34_uime": "Jurčičeva 1",
    "n8": 207004,
    "address": "Jurčičeva ulica 1, 6250 Ilirska Bistrica",
    "description": "",
    "latitude": "45.5705852",
    "longitude": "14.2421982"
  },
  {
    "d34_mid": 16923630,
    "d34_uime": "Predavalnica",
    "n8": 207005,
    "address": "Šercerjeva cesta 17, 6250 Ilirska Bistrica",
    "description": "",
    "latitude": "45.5747531",
    "longitude": "14.2389247"
  },
  {
    "d34_mid": 16923648,
    "d34_uime": "Vaški dom Jasen",
    "n8": 207006,
    "address": "Jasen 15c, 6250 Ilirska Bistrica",
    "description": "",
    "latitude": "45.5581099",
    "longitude": "14.2615896"
  },
  {
    "d34_mid": 16923656,
    "d34_uime": "Gasilski dom Vrbovo",
    "n8": 207007,
    "address": "Vrbovo 23, 6250 Ilirska Bistrica",
    "description": "",
    "latitude": "45.5534294",
    "longitude": "14.2751904"
  },
  {
    "d34_mid": 16923664,
    "d34_uime": "Vaški dom",
    "n8": 207008,
    "address": "Vrbica 24, 6250 Ilirska Bistrica",
    "description": "",
    "latitude": "45.5459623",
    "longitude": "14.2858611"
  },
  {
    "d34_mid": 16923672,
    "d34_uime": "Jablanica 32a",
    "n8": 207009,
    "address": "Jablanica 32a, 6250 Ilirska Bistrica",
    "description": "",
    "latitude": "45.5385182",
    "longitude": "14.3022086"
  },
  {
    "d34_mid": 16923699,
    "d34_uime": "Gostilna Celin",
    "n8": 207010,
    "address": "Kuteževo 43, 6250 Kuteževo",
    "description": "",
    "latitude": "45.5313198",
    "longitude": "14.3308027"
  },
  {
    "d34_mid": 16923702,
    "d34_uime": "Bar Kočanija",
    "n8": 207011,
    "address": "Trpčane 41b, 6250 Ilirska Bistrica",
    "description": "",
    "latitude": "45.5277995",
    "longitude": "14.3177788"
  },
  {
    "d34_mid": 16923729,
    "d34_uime": "Dom na Selih",
    "n8": 207012,
    "address": "Podgraje 75, 6250 Ilirska Bistrica",
    "description": "",
    "latitude": "45.5207703",
    "longitude": "14.3475244"
  },
  {
    "d34_mid": 16923745,
    "d34_uime": "Gostilna \"Sabrina\" Sušak",
    "n8": 207013,
    "address": null,
    "description": "",
    "latitude": "45.487022",
    "longitude": "14.327447"
  },
  {
    "d34_mid": 16923753,
    "d34_uime": "Bivša gostilna",
    "n8": 207014,
    "address": "Novokračine 46, 6254 Jelšane",
    "description": "",
    "latitude": "45.4933786",
    "longitude": "14.3095134"
  },
  {
    "d34_mid": 16923761,
    "d34_uime": "Gasilski dom Jelšane",
    "n8": 207015,
    "address": "Jelšane 11, 6254 Jelšane",
    "description": "",
    "latitude": "45.5000392",
    "longitude": "14.2723406"
  },
  {
    "d34_mid": 16923770,
    "d34_uime": "Dolenje pri Jelšanah 6",
    "n8": 207016,
    "address": "Dolenje pri Jelšanah 6, 6254 Jelšane",
    "description": "",
    "latitude": "45.5053247",
    "longitude": "14.2678138"
  },
  {
    "d34_mid": 16923788,
    "d34_uime": "Bivša šolska stavba, Veliko Brdo",
    "n8": 207017,
    "address": null,
    "description": "",
    "latitude": "45.515231",
    "longitude": "14.220747"
  },
  {
    "d34_mid": 16923796,
    "d34_uime": "Na balincu, Mala Bukovica",
    "n8": 207018,
    "address": null,
    "description": "",
    "latitude": "45.533556",
    "longitude": "14.242644"
  },
  {
    "d34_mid": 17366661,
    "d34_uime": "OŠ Kranjska Gora",
    "n8": 101004,
    "address": "Koroška ulica 12, 4280 Kranjska Gora",
    "description": "",
    "latitude": "46.4859385",
    "longitude": "13.7841574"
  },
  {
    "d34_mid": 17367030,
    "d34_uime": "Gasilski dom",
    "n8": 101005,
    "address": "Zgornje Rute 85, 4282 Kranjska Gora ",
    "description": "",
    "latitude": "46.4849575",
    "longitude": "13.828812"
  },
  {
    "d34_mid": 17367056,
    "d34_uime": "Kulturni dom",
    "n8": 101006,
    "address": "Kulturni dom Dovje Dovje 109, 4281 Mojstrana",
    "description": "",
    "latitude": "46.46710580000001",
    "longitude": "13.9451467"
  },
  {
    "d34_mid": 17366688,
    "d34_uime": "OŠ 16.demcember",
    "n8": 101007,
    "address": "ULICA ALOJZA RABIČA 7, 4281 MOJSTRANA",
    "description": "",
    "latitude": "46.4604208",
    "longitude": "13.9375129"
  },
  {
    "d34_mid": 17366700,
    "d34_uime": "Hiša TNP",
    "n8": 101008,
    "address": "Zgornja Radovna 21, 4281 Kranjska Gora",
    "description": "",
    "latitude": "46.4285991",
    "longitude": "13.9478216"
  },
  {
    "d34_mid": 17366718,
    "d34_uime": "Prostovoljno gasilsko društvo ",
    "n8": 101009,
    "address": "HRUŠICA 13, 4276 HRUŠICA",
    "description": "",
    "latitude": "46.4476036",
    "longitude": "14.0195305"
  },
  {
    "d34_mid": 17366726,
    "d34_uime": "Kulturni dom na Hrušici",
    "n8": 101010,
    "address": "Hrušica 55A, 4276 Hrušica",
    "description": "",
    "latitude": "46.4476799",
    "longitude": "14.0197219"
  },
  {
    "d34_mid": 17366742,
    "d34_uime": "Krajevna skupnost",
    "n8": 101011,
    "address": "Planina pod Golico 31, 4270 Jesenice",
    "description": "",
    "latitude": "46.4662619",
    "longitude": "14.0510173"
  },
  {
    "d34_mid": 17366777,
    "d34_uime": "hiša Klinar Štefan",
    "n8": 101012,
    "address": "Plavški Rovt 14, 4270 Jesenice",
    "description": "",
    "latitude": "46.4538555",
    "longitude": "14.0335478"
  },
  {
    "d34_mid": 17366793,
    "d34_uime": "Avla Zdrav.doma Jesenice",
    "n8": 101014,
    "address": "Plavž 2, Cesta m.Tita 78, 4270 Jesenice",
    "description": "",
    "latitude": "46.43642149999999",
    "longitude": "14.0604946"
  },
  {
    "d34_mid": 17366807,
    "d34_uime": "pritličje OŠ Tone Čufar učil.1",
    "n8": 101015,
    "address": "Plavž 3, Jesenice, 4270 Jesenice",
    "description": "",
    "latitude": "46.43946440000001",
    "longitude": "14.0441907"
  },
  {
    "d34_mid": 17366815,
    "d34_uime": "JEKO d.o.o.",
    "n8": 101016,
    "address": "Plavž 4, Cesta maršala Tita 51, 4270 Jesenice",
    "description": "",
    "latitude": "46.4361901",
    "longitude": "14.0590557"
  },
  {
    "d34_mid": 17366858,
    "d34_uime": "Vrtec A.Ocepek",
    "n8": 101017,
    "address": "Plavž 5, Jesen.,C.Cirila Tavčarja 3a, 4270 Jesenice",
    "description": "",
    "latitude": "46.4387166",
    "longitude": "14.0433566"
  },
  {
    "d34_mid": 17366912,
    "d34_uime": "Krajevna skupnost Sava",
    "n8": 101018,
    "address": "Sava 1, Pod gozdom 2, 4270 Jesenice",
    "description": "",
    "latitude": "46.4368235",
    "longitude": "14.0585789"
  },
  {
    "d34_mid": 17366939,
    "d34_uime": "OŠ Prežihov Voranc",
    "n8": 101019,
    "address": "Sava 2, C. Toneta Tomšiča 5, 4270 Jesenice",
    "description": "",
    "latitude": "46.43574479999999",
    "longitude": "14.0617736"
  },
  {
    "d34_mid": 17366947,
    "d34_uime": "OŠ Prežihov Voranc",
    "n8": 101020,
    "address": "Sava 3, C.Toneta Tomšiča 5, 4270 Jesenice",
    "description": "",
    "latitude": "46.4365855",
    "longitude": "14.0617842"
  },
  {
    "d34_mid": 17366955,
    "d34_uime": "OŠ Polde Stražišar",
    "n8": 101021,
    "address": "Sava 4, Ul. V.Kejžarja 35, 4270 Jesenice",
    "description": "",
    "latitude": "46.4338579",
    "longitude": "14.063396"
  },
  {
    "d34_mid": 17366963,
    "d34_uime": "Srednja šola Jesenice",
    "n8": 101022,
    "address": "Sava 5, Ul. bratov Rupar 2, 4270 Jesenice",
    "description": "",
    "latitude": "46.43282689999999",
    "longitude": "14.0647541"
  },
  {
    "d34_mid": 17366971,
    "d34_uime": "Sejna soba ZŠ Jesenice",
    "n8": 101023,
    "address": "Podmežakla1, Ledarska ul.6a, 4270 Jesenice",
    "description": "",
    "latitude": "46.4332552",
    "longitude": "14.0496375"
  },
  {
    "d34_mid": 17366980,
    "d34_uime": "Krajevna skupnost",
    "n8": 101024,
    "address": "Krajevna skupnost, Mencingerjeva u.1, 4270 Jesenice",
    "description": "",
    "latitude": "46.4330743",
    "longitude": "14.0524396"
  },
  {
    "d34_mid": 17367005,
    "d34_uime": "OŠ Koroška Bela",
    "n8": 101026,
    "address": "Javornik-Kor. Bela 1, C.Talcev 2, 4270 Jesenice",
    "description": "",
    "latitude": "46.4258592",
    "longitude": "14.0977582"
  },
  {
    "d34_mid": 17367064,
    "d34_uime": "OŠ Koroška Bela ",
    "n8": 101027,
    "address": "Javornik-Kor. Bela 2, C.Talcev 2, 4270 Jesenice",
    "description": "",
    "latitude": "46.42628999999999",
    "longitude": "14.0970825"
  },
  {
    "d34_mid": 17367072,
    "d34_uime": "Delavski dom",
    "n8": 101028,
    "address": "Javornik-Kor.Bela 3, Kidričeva 37 c, 4270 Jesenice",
    "description": "",
    "latitude": "46.4367047",
    "longitude": "14.0526057"
  },
  {
    "d34_mid": 17367099,
    "d34_uime": "Delavski dom",
    "n8": 101029,
    "address": "Javornik-Kor. Bela 4, Kidričeva 37 c, 4270 Jesenice",
    "description": "",
    "latitude": "46.4367047",
    "longitude": "14.0526057"
  },
  {
    "d34_mid": 17367170,
    "d34_uime": "Bl. Dobrava-podružnična šola",
    "n8": 101030,
    "address": "Blejska Dobrava 44, 4270 Jesenice",
    "description": "",
    "latitude": "46.4098126",
    "longitude": "14.0975835"
  },
  {
    "d34_mid": 17367196,
    "d34_uime": "Orodišče Kočna",
    "n8": 101031,
    "address": "Kočna",
    "description": "",
    "latitude": "46.3586111",
    "longitude": "14.5219444"
  },
  {
    "d34_mid": 17367226,
    "d34_uime": "TVD PARTIZAN",
    "n8": 101032,
    "address": "Žirovnica 63, Moste, 4274 Žirovnica",
    "description": "",
    "latitude": "46.41091180000001",
    "longitude": "14.134489"
  },
  {
    "d34_mid": 17367234,
    "d34_uime": "Elektrarna Moste",
    "n8": 101033,
    "address": "Moste 41, Breg, 4274 Žirovnica",
    "description": "",
    "latitude": "46.3931188",
    "longitude": "14.1260133"
  },
  {
    "d34_mid": 17367242,
    "d34_uime": "Čopova rojstna hiša",
    "n8": 101034,
    "address": "Žirovnica 14, 4274 Žirovnica",
    "description": "",
    "latitude": "46.4044239",
    "longitude": "14.1375549"
  },
  {
    "d34_mid": 17366998,
    "d34_uime": "Gasilski dom Javorniški Rovt",
    "n8": 101025,
    "address": "Javorniški Rovt 17, 4270 Jesenice",
    "description": "",
    "latitude": "46.4440606",
    "longitude": "14.035164848178175"
  },
  {
    "d34_mid": 17367269,
    "d34_uime": "OŠ Žirovnica",
    "n8": 101035,
    "address": "Zabreznica 4, Selo, 4274 Žirovnica",
    "description": "",
    "latitude": "46.39925849999999",
    "longitude": "14.1453536"
  },
  {
    "d34_mid": 17367277,
    "d34_uime": "Občina Žirovnica",
    "n8": 101036,
    "address": "Breznica3, Breznica,Doslovče,Vrba, 4274 Žirovnica",
    "description": "",
    "latitude": "46.400422",
    "longitude": "14.160841"
  },
  {
    "d34_mid": 17367285,
    "d34_uime": "Gasilski dom Smokuč",
    "n8": 101037,
    "address": "Smokuč 46, Smokuč, Rodine, 4274 Žirovnica",
    "description": "",
    "latitude": "46.3878736",
    "longitude": "14.1687782"
  },
  {
    "d34_mid": 17588192,
    "d34_uime": "Gasilski dom Mlino",
    "n8": 102001,
    "address": "Mlinska cesta 26, 4260 Bled",
    "description": "",
    "latitude": "46.3573931",
    "longitude": "14.1010745"
  },
  {
    "d34_mid": 17588206,
    "d34_uime": "Gasilski dom Rečica",
    "n8": 102002,
    "address": "Rečiška cesta 4, 4260 Bled",
    "description": "",
    "latitude": "46.3763286",
    "longitude": "14.0911989"
  },
  {
    "d34_mid": 17588214,
    "d34_uime": "Občina Bled",
    "n8": 102003,
    "address": "Cesta svobode 13, 4260 Bled",
    "description": "",
    "latitude": "46.3687079",
    "longitude": "14.1095897"
  },
  {
    "d34_mid": 17588249,
    "d34_uime": "Osnovna šola Bled",
    "n8": 102004,
    "address": "Seliška cesta 3, 4260 Bled",
    "description": "",
    "latitude": "46.3725123",
    "longitude": "14.1098876"
  },
  {
    "d34_mid": 17590219,
    "d34_uime": "INFOCENTER TRIGLAVSKA ROŽA BLED",
    "n8": 102005,
    "address": "Ljubljanska cesta 27, 4260 Bled ",
    "description": "",
    "latitude": "46.36878189999999",
    "longitude": "14.1188927"
  },
  {
    "d34_mid": 17588290,
    "d34_uime": "Kulturni dom Bohinjska Bela",
    "n8": 102006,
    "address": "Bohinjska Bela  37, 4263 Bled",
    "description": "",
    "latitude": "46.3495551",
    "longitude": "14.0671114"
  },
  {
    "d34_mid": 17588311,
    "d34_uime": "Gostilna Kunavc",
    "n8": 102007,
    "address": "Krnica 21, Zgornje Gorje, Krnica 4247",
    "description": "",
    "latitude": "46.3775413",
    "longitude": "14.0554063"
  },
  {
    "d34_mid": 17588320,
    "d34_uime": "Osnovna šola Gorje",
    "n8": 102008,
    "address": "Zg. Gorje 44 a, Zg. Gorje, Krnica 4247",
    "description": "",
    "latitude": "46.38086730000001",
    "longitude": "14.0661025"
  },
  {
    "d34_mid": 17588338,
    "d34_uime": "Osnovna šola Gorje",
    "n8": 102009,
    "address": "Zg. Gorje 44a, Zg. Gorje, Krnica 4274",
    "description": "",
    "latitude": "46.376199",
    "longitude": "14.0586403"
  },
  {
    "d34_mid": 17588346,
    "d34_uime": "Dom upokojencev Spodnje Gorje",
    "n8": 102010,
    "address": "Sp. Gorje 208, 4247 Zgornje Gorje",
    "description": "",
    "latitude": "46.3829164",
    "longitude": "14.0779833"
  },
  {
    "d34_mid": 17588354,
    "d34_uime": "Gasilski dom Podhom",
    "n8": 102011,
    "address": "Podhom 15, Zg. Gorje, Krnica 4274",
    "description": "",
    "latitude": "46.3882787",
    "longitude": "14.0917805"
  },
  {
    "d34_mid": 17588362,
    "d34_uime": "Zadružni dom Ribno",
    "n8": 102012,
    "address": "Izletniška ul.11, 4260 Bled",
    "description": "",
    "latitude": "46.3516418",
    "longitude": "14.122432"
  },
  {
    "d34_mid": 17588389,
    "d34_uime": "Natura hotel LUKANC",
    "n8": 102013,
    "address": "Selo pri Bledu 8, 4260 Bled ",
    "description": "",
    "latitude": "46.3498812",
    "longitude": "14.1128703"
  },
  {
    "d34_mid": 17588397,
    "d34_uime": "Kulturni dom Zasip",
    "n8": 102014,
    "address": "Sebenje 6, 4260 Bled",
    "description": "",
    "latitude": "46.38852869999999",
    "longitude": "14.1058049"
  },
  {
    "d34_mid": 17588419,
    "d34_uime": "Vrtec Bohinjska Bistrica",
    "n8": 102015,
    "address": "Mencingerjeva ulica 4, 4264 Bohinjska Bistrica",
    "description": "",
    "latitude": "46.2733089",
    "longitude": "13.951843"
  },
  {
    "d34_mid": 17588427,
    "d34_uime": "Dom Joža Ažmana",
    "n8": 102016,
    "address": "Triglavska cesta 16, 4264 Bohinjska Bistrica",
    "description": "",
    "latitude": "46.27263079999999",
    "longitude": "13.9560425"
  },
  {
    "d34_mid": 17588443,
    "d34_uime": "Gasilski dom Bitnje",
    "n8": 102017,
    "address": "Bitnje 13, 4264 Bohinjska Bistrica",
    "description": "",
    "latitude": "46.2843617",
    "longitude": "13.9624674"
  },
  {
    "d34_mid": 17588451,
    "d34_uime": "Gasilski dom Nomenj",
    "n8": 102018,
    "address": "Nomenj 23, 4264 Boh. Bistrica",
    "description": "",
    "latitude": "46.2926314",
    "longitude": "14.0063934"
  },
  {
    "d34_mid": 17588460,
    "d34_uime": "Turistično društvo Bohinj",
    "n8": 102019,
    "address": "Ribčev Laz 48, 4265 Bohinjsko jezero",
    "description": "",
    "latitude": "46.2767947",
    "longitude": "13.8875601"
  },
  {
    "d34_mid": 17588478,
    "d34_uime": "Gasilski dom Kamnje",
    "n8": 102020,
    "address": "Kamnje 26 a, 4264 Boh.Bistrica",
    "description": "",
    "latitude": "46.2715882",
    "longitude": "13.9159213"
  },
  {
    "d34_mid": 17588486,
    "d34_uime": "Gasilski dom Nemški rovt",
    "n8": 102021,
    "address": "Nemški rovt18, 4264 B.Bistrica",
    "description": "",
    "latitude": "46.2729809",
    "longitude": "13.940297"
  },
  {
    "d34_mid": 17588494,
    "d34_uime": "Gasilski dom Koprivnik",
    "n8": 102022,
    "address": "Koprivnik 3a, 4264 Bohinjska Bistrica",
    "description": "",
    "latitude": "46.3042557",
    "longitude": "13.9813691"
  },
  {
    "d34_mid": 17588508,
    "d34_uime": "Gasilski dom Gorjuše",
    "n8": 102023,
    "address": "Gorjuše 36 a, 4264 Boh.Bistrica",
    "description": "",
    "latitude": "46.3161332",
    "longitude": "14.011026"
  },
  {
    "d34_mid": 17588516,
    "d34_uime": "Gasilski dom Srednja vas",
    "n8": 102024,
    "address": "Srednja vas 83,  4267 SREDNJA VAS V BOHINJU",
    "description": "",
    "latitude": "46.2965393",
    "longitude": "13.9287198"
  },
  {
    "d34_mid": 17588524,
    "d34_uime": "Gasilski dom Bohinj. Češnjica",
    "n8": 102025,
    "address": "Bohin. Češnjica 79, 4267 Bohinjska Češnjica",
    "description": "",
    "latitude": "46.2956647",
    "longitude": "13.9466719"
  },
  {
    "d34_mid": 17588532,
    "d34_uime": "Pri Zdenki Platiša",
    "n8": 102026,
    "address": "Podjelje 15 a, Sr.vas v Bohinju, 4267 Bohinjska Bistrica",
    "description": "",
    "latitude": "46.2972907",
    "longitude": "13.9260882"
  },
  {
    "d34_mid": 17588559,
    "d34_uime": "Kulturni dom Stara Fužina",
    "n8": 102027,
    "address": "Stara Fužina 53b, 4265 Bohinjsko jezero",
    "description": "",
    "latitude": "46.288666",
    "longitude": "13.894894"
  },
  {
    "d34_mid": 17588567,
    "d34_uime": "Pri Milanu Talerju",
    "n8": 102028,
    "address": "Studor v Bohinju 5a, 4267 SREDNJA VAS V BOHINJU",
    "description": "",
    "latitude": "46.29471789999999",
    "longitude": "13.9140688"
  },
  {
    "d34_mid": 17588575,
    "d34_uime": "Klub upokojencev Begunje",
    "n8": 103001,
    "address": "Begunje na Gorenjskem 23, 4275 Begunje na Gorenjskem.",
    "description": "",
    "latitude": "46.37522149999999",
    "longitude": "14.1997821"
  },
  {
    "d34_mid": 17588583,
    "d34_uime": "VETERINARSKA AMBULANTA ZAPUŽE",
    "n8": 103002,
    "address": "Zapuže 3a,  4275 Begunje na Gorenjskem",
    "description": "",
    "latitude": "46.3651934",
    "longitude": "14.191541"
  },
  {
    "d34_mid": 17588591,
    "d34_uime": "GASILSKO ORODIŠČE, pri hiši Konc",
    "n8": 103003,
    "address": "Dvorska vas 20a, 4275 Begunje na Gorenjskem",
    "description": "",
    "latitude": "46.3593047",
    "longitude": "14.2047011"
  },
  {
    "d34_mid": 17588605,
    "d34_uime": "Gasilski dom Slatna",
    "n8": 103004,
    "address": "Slatna 15, 4275 Begunje na Gorenjskem",
    "description": "",
    "latitude": "46.3668475",
    "longitude": "14.230196"
  },
  {
    "d34_mid": 17588613,
    "d34_uime": "Dom krajanov Brezje",
    "n8": 103005,
    "address": "Brezje 80 c, 4243 Brezje",
    "description": "",
    "latitude": "46.32753410000001",
    "longitude": "14.232338"
  },
  {
    "d34_mid": 17588621,
    "d34_uime": "Dom krajanov Kamna Gorica",
    "n8": 103006,
    "address": "Kamna Gorica 58, 4246 Kamna Gorica",
    "description": "",
    "latitude": "46.316389",
    "longitude": "14.1940129"
  },
  {
    "d34_mid": 17588630,
    "d34_uime": "Avla Sindikalnega doma Kropa",
    "n8": 103007,
    "address": "Kropa 3, 4245 KROPA",
    "description": "",
    "latitude": "46.2918077",
    "longitude": "14.2060658"
  },
  {
    "d34_mid": 17588648,
    "d34_uime": "KULTURNI DOM LANCOVO",
    "n8": 103008,
    "address": "Lancovo 30, 4240 RADOVLJICA",
    "description": "",
    "latitude": "46.32867299999999",
    "longitude": "14.1652348"
  },
  {
    "d34_mid": 17588656,
    "d34_uime": "Gasilski dom Hlebce",
    "n8": 103009,
    "address": "Hlebce 9, 4248 Hlebce",
    "description": "",
    "latitude": "46.3659992",
    "longitude": "14.1777378"
  },
  {
    "d34_mid": 17588664,
    "d34_uime": "Turistična kmetija PR GROM",
    "n8": 103010,
    "address": "Hraše 17 c, 4240 Radovljica",
    "description": "",
    "latitude": "46.3699867",
    "longitude": "14.1658002"
  },
  {
    "d34_mid": 17588672,
    "d34_uime": "Stanovanjska hiša pri Čopu",
    "n8": 103011,
    "address": "Studenčice 4 a, 4248 Lesce",
    "description": "",
    "latitude": "46.37636089999999",
    "longitude": "14.1614396"
  },
  {
    "d34_mid": 17588699,
    "d34_uime": "Družbeni center Lesce",
    "n8": 103012,
    "address": "Alpska cesta 58, 4248 Lesce",
    "description": "",
    "latitude": "46.3629118",
    "longitude": "14.1583998"
  },
  {
    "d34_mid": 17588702,
    "d34_uime": "OŠ F.S. Finžgarja Lesce",
    "n8": 103013,
    "address": "Begunjska cesta 7, 4248 Lesce",
    "description": "",
    "latitude": "46.36218119999999",
    "longitude": "14.1619352"
  },
  {
    "d34_mid": 17588729,
    "d34_uime": "Dom ŠD Ljubno",
    "n8": 103014,
    "address": "Ljubno 114, 4244 Podnart.",
    "description": "",
    "latitude": "46.3119811",
    "longitude": "14.2503748"
  },
  {
    "d34_mid": 17588737,
    "d34_uime": "Vrtec na Posavcu",
    "n8": 103015,
    "address": "Posavec 86,  4244 Podnart",
    "description": "",
    "latitude": "46.3114244",
    "longitude": "14.2382554"
  },
  {
    "d34_mid": 17588745,
    "d34_uime": "Kulturni dom Mošnje",
    "n8": 103016,
    "address": "Mošnje 41, 4240 RADOVLJICA",
    "description": "",
    "latitude": "46.3359227",
    "longitude": "14.2100536"
  },
  {
    "d34_mid": 17588753,
    "d34_uime": "GASILSKI DOM PODNART",
    "n8": 103017,
    "address": "Podnart 13, 4244 Radovljica",
    "description": "",
    "latitude": "46.28868809999999",
    "longitude": "14.2585268"
  },
  {
    "d34_mid": 17468545,
    "d34_uime": "Gasilski dom",
    "n8": 106005,
    "address": "Lahovče 74, 4207 CERKLJE NA GORENJSKEM",
    "description": "",
    "latitude": "46.2194095",
    "longitude": "14.5051647"
  },
  {
    "d34_mid": 17588770,
    "d34_uime": "Srednja gost.in tur.šola Radovljica",
    "n8": 103019,
    "address": "Kranjska c.24, 4240 Radovljica",
    "description": "",
    "latitude": "46.3449033",
    "longitude": "14.172566"
  },
  {
    "d34_mid": 17588788,
    "d34_uime": "Avla Občine Radovljica",
    "n8": 103020,
    "address": "Gorenjska c.19, 4240 Radovljica",
    "description": "",
    "latitude": "46.3438093",
    "longitude": "14.1715796"
  },
  {
    "d34_mid": 17588796,
    "d34_uime": "Ekon.gimnazija in sr.šola Radovljica",
    "n8": 103021,
    "address": "Gorenjska 13, 4240 Radovljica",
    "description": "",
    "latitude": "46.3425977",
    "longitude": "14.1717597"
  },
  {
    "d34_mid": 17588800,
    "d34_uime": "OŠ A. T. LINHARTA",
    "n8": 103022,
    "address": "Kranjska cesta 27, 4240 Radovljica",
    "description": "",
    "latitude": "46.3467689",
    "longitude": "14.1747419"
  },
  {
    "d34_mid": 17588818,
    "d34_uime": "Stanovanjska hiša Jensterle",
    "n8": 103023,
    "address": "Nova vas 45, 1385 Nova vas",
    "description": "",
    "latitude": "45.7710402",
    "longitude": "14.5132208"
  },
  {
    "d34_mid": 17588826,
    "d34_uime": "Plezalni center v Vrbnjah",
    "n8": 103024,
    "address": "Vrbnje 46, 4240 Radovljica",
    "description": "",
    "latitude": "46.3467686",
    "longitude": "14.1914314"
  },
  {
    "d34_mid": 17588834,
    "d34_uime": "Gasilski dom Srednja Dobrava",
    "n8": 103025,
    "address": "Srednja Dobrava 7, 4245 Kropa",
    "description": "",
    "latitude": "46.3069955",
    "longitude": "14.2193777"
  },
  {
    "d34_mid": 17588842,
    "d34_uime": "Prostor KS Otok",
    "n8": 103026,
    "address": "Zgornji Otok 6 a, 4240 Zgornji Otok",
    "description": "",
    "latitude": "46.348153",
    "longitude": "14.2059212"
  },
  {
    "d34_mid": 17469231,
    "d34_uime": "Avla Mestne občine Kranj",
    "n8": 104001,
    "address": "Slovenski trg 1, Center, 4000 Kranj",
    "description": "",
    "latitude": "46.243268",
    "longitude": "14.3557455"
  },
  {
    "d34_mid": 17469240,
    "d34_uime": "Dom KS",
    "n8": 104002,
    "address": "Smledniška cesta 136, Čirče, 4000 Kranj",
    "description": "",
    "latitude": "46.2279242",
    "longitude": "14.3656502"
  },
  {
    "d34_mid": 17469258,
    "d34_uime": "Dom krajanov",
    "n8": 104003,
    "address": "Klanec II, Jezerska cesta 41, 4000 Kranj",
    "description": "",
    "latitude": "46.2472905",
    "longitude": "14.3689151"
  },
  {
    "d34_mid": 17469720,
    "d34_uime": "OŠ Matije Čopa, ",
    "n8": 104004,
    "address": "Bratov Smuk I, Ul. Tuga Vidmarja 1, 4000 Kranj",
    "description": "",
    "latitude": "46.2376012",
    "longitude": "14.3680066"
  },
  {
    "d34_mid": 17469100,
    "d34_uime": "OŠ Matije Čopa, ",
    "n8": 104005,
    "address": "Bratov Smuk II, Ul.Tuga Vidmarja 1, 4000 Kranj",
    "description": "",
    "latitude": "46.2376012",
    "longitude": "14.3680066"
  },
  {
    "d34_mid": 17468588,
    "d34_uime": "Dom krajanov",
    "n8": 104006,
    "address": "Klanec I, Jezerska cesta 41, 4000 Kranj",
    "description": "",
    "latitude": "46.2472905",
    "longitude": "14.3689151"
  },
  {
    "d34_mid": 17469274,
    "d34_uime": "Dom krajanov, ",
    "n8": 104007,
    "address": "Primskovo I, Jezerska c. 41, 4000 Kranj",
    "description": "",
    "latitude": "46.2472905",
    "longitude": "14.3689151"
  },
  {
    "d34_mid": 17468596,
    "d34_uime": "Dom krajanov, ",
    "n8": 104008,
    "address": "Primskovo II, Jezerska c. 41, 4000 Kranj",
    "description": "",
    "latitude": "46.2472905",
    "longitude": "14.3689151"
  },
  {
    "d34_mid": 17469304,
    "d34_uime": "OŠ Simon Jenko",
    "n8": 104009,
    "address": "Vodov.stolp III, Ul.XXXI.divizije7a, 4000 Kranj",
    "description": "",
    "latitude": "46.2510536",
    "longitude": "14.3594844"
  },
  {
    "d34_mid": 17468618,
    "d34_uime": "OŠ Simon Jenko",
    "n8": 104010,
    "address": "Vodov.stolp II, Ul.XXXI.divizije 7a, 4000 Kranj",
    "description": "",
    "latitude": "46.2510536",
    "longitude": "14.3594844"
  },
  {
    "d34_mid": 17468626,
    "d34_uime": "OŠ Simon Jenko",
    "n8": 104011,
    "address": "Vodov.stolp I, Ul.XXXI.divizije 7a, 4000 Kranj",
    "description": "",
    "latitude": "46.2510536",
    "longitude": "14.3594844"
  },
  {
    "d34_mid": 17468634,
    "d34_uime": "Kulturni dom Kokrica",
    "n8": 104012,
    "address": "Kokrica II, C. na Brdo 30, 4000 Kokrica",
    "description": "",
    "latitude": "46.26882639999999",
    "longitude": "14.3592872"
  },
  {
    "d34_mid": 17469339,
    "d34_uime": "Kulturni dom Kokrica",
    "n8": 104013,
    "address": "Kokrica I,  C. na Brdo 30, 4000 Kokrica",
    "description": "",
    "latitude": "46.26882639999999",
    "longitude": "14.3592872"
  },
  {
    "d34_mid": 17469754,
    "d34_uime": "Kulturni dom",
    "n8": 104014,
    "address": "Predoslje 34, 4000 Kranj",
    "description": "",
    "latitude": "46.2684254",
    "longitude": "14.3844915"
  },
  {
    "d34_mid": 17468669,
    "d34_uime": "Gasilski dom",
    "n8": 104016,
    "address": "Britof 316, 4000 Kranj",
    "description": "",
    "latitude": "46.2607181",
    "longitude": "14.3899739"
  },
  {
    "d34_mid": 17469126,
    "d34_uime": "OŠ Jakob Aljaž, ",
    "n8": 105001,
    "address": "Huje II, Ul.TončkaDežmana 1, 4000 Kranj ",
    "description": "",
    "latitude": "46.235937",
    "longitude": "14.3655089"
  },
  {
    "d34_mid": 17468677,
    "d34_uime": "OŠ Stane Žagar, ",
    "n8": 105002,
    "address": "Huje I, C. 1.maja 10 a, 4000 Kranj",
    "description": "",
    "latitude": "46.23504759999999",
    "longitude": "14.3590414"
  },
  {
    "d34_mid": 17469681,
    "d34_uime": "OŠ Stane Žagar, ",
    "n8": 105003,
    "address": "Planina II, C. 1. maja 10a, 4000 Kranj",
    "description": "",
    "latitude": "46.23504759999999",
    "longitude": "14.3590414"
  },
  {
    "d34_mid": 17468707,
    "d34_uime": "OŠ Stane Žagar, ",
    "n8": 105004,
    "address": "Planina I, C. 1. maja 10 a, 4000 Kranj",
    "description": "",
    "latitude": "46.23504759999999",
    "longitude": "14.3590414"
  },
  {
    "d34_mid": 17469380,
    "d34_uime": "OŠ F.Prešeren,",
    "n8": 105005,
    "address": "Zlato polje I, Kidričeva c.49, 4000 Kranj",
    "description": "",
    "latitude": "46.2505736",
    "longitude": "14.3536876"
  },
  {
    "d34_mid": 17468715,
    "d34_uime": "Oš F.Prešeren,",
    "n8": 105006,
    "address": "Zlato Polje II, Kidričeva c. 49, 4000 Kranj",
    "description": "",
    "latitude": "46.2505736",
    "longitude": "14.3536876"
  },
  {
    "d34_mid": 17468723,
    "d34_uime": "Dom KS",
    "n8": 105007,
    "address": "Struževo, 4000 Kranj",
    "description": "",
    "latitude": "46.2538718",
    "longitude": "14.3394911"
  },
  {
    "d34_mid": 17468731,
    "d34_uime": "Smučarski skakalni center Gorenja Sava",
    "n8": 105008,
    "address": "Partizanska 37, 4000 Kranj",
    "description": "",
    "latitude": "46.2520254",
    "longitude": "14.3639106"
  },
  {
    "d34_mid": 17469134,
    "d34_uime": "Šmartinski dom",
    "n8": 105009,
    "address": "Stražišče I, Škofjeloška c.18, 4000 KR",
    "description": "",
    "latitude": "46.2316283",
    "longitude": "14.3463998"
  },
  {
    "d34_mid": 17469401,
    "d34_uime": "Šmartinski dom",
    "n8": 105010,
    "address": "Stražišče II, Škofjeloška c.18, 4000 KR",
    "description": "",
    "latitude": "46.2316283",
    "longitude": "14.3463998"
  },
  {
    "d34_mid": 17468758,
    "d34_uime": "Osnovna šola, ",
    "n8": 105011,
    "address": "Orehek I, Zasavska cesta 53 a, 4000 Kranj",
    "description": "",
    "latitude": "46.21909489999999",
    "longitude": "14.3646817"
  },
  {
    "d34_mid": 17469428,
    "d34_uime": "Osnovna šola, ",
    "n8": 105012,
    "address": "Orehek II, Zasavska cesta 53a, 4000Kranj",
    "description": "",
    "latitude": "46.21909489999999",
    "longitude": "14.3646817"
  },
  {
    "d34_mid": 17468766,
    "d34_uime": "Gasil.dom Breg ob Savi",
    "n8": 105013,
    "address": "Breg ob Savi, Br.ob Savi 34, 4211 Breg ob Savi",
    "description": "",
    "latitude": "46.2069387",
    "longitude": "14.3841587"
  },
  {
    "d34_mid": 17469142,
    "d34_uime": "KS Mavčiče",
    "n8": 105014,
    "address": "Mavčiče 69, 4211 Mavčiče",
    "description": "",
    "latitude": "46.1881215",
    "longitude": "14.4038874"
  },
  {
    "d34_mid": 17468774,
    "d34_uime": "Krelj Thomas",
    "n8": 105015,
    "address": "Podreča 74, 4211 Mavcice ",
    "description": "",
    "latitude": "46.1722465",
    "longitude": "14.4119234"
  },
  {
    "d34_mid": 17469436,
    "d34_uime": "Telovadnica",
    "n8": 105016,
    "address": "Žabnica 20,  4209 Žabnica",
    "description": "",
    "latitude": "46.19761399999999",
    "longitude": "14.3326896"
  },
  {
    "d34_mid": 17469797,
    "d34_uime": "Gasilski dom",
    "n8": 105017,
    "address": "Bitnje II, Zgornje Bitnje 33, 4209 Žabnica",
    "description": "",
    "latitude": "46.21571369999999",
    "longitude": "14.3382798"
  },
  {
    "d34_mid": 17469444,
    "d34_uime": "Gasilski dom,",
    "n8": 105018,
    "address": "Zgornje Bitnje 33, 4209 Zgornje Bitnje",
    "description": "",
    "latitude": "46.21571369999999",
    "longitude": "14.3382798"
  },
  {
    "d34_mid": 17468782,
    "d34_uime": "Dom KS Jošt",
    "n8": 105019,
    "address": "Pševo 3, Pševo, 4000 Kranj ",
    "description": "",
    "latitude": "46.2384901",
    "longitude": "14.3063665"
  },
  {
    "d34_mid": 17469452,
    "d34_uime": "Gasilski dom Besnica",
    "n8": 105020,
    "address": "Sp. Besnica, Na hribu 7, 4201 Zgornja Besnica",
    "description": "",
    "latitude": "46.2585093",
    "longitude": "14.3012074"
  },
  {
    "d34_mid": 17468499,
    "d34_uime": "Volišče Adergas",
    "n8": 106001,
    "address": "Adergas 12, 4207 Cerklje na Gorenjskem",
    "description": "",
    "latitude": "46.2708096",
    "longitude": "14.4639798"
  },
  {
    "d34_mid": 17468529,
    "d34_uime": "OŠ D.Jenko",
    "n8": 106002,
    "address": "Krvavška cesta 4, Cerklje na Gor. I, 4207 Cerklje na Gorenjskem",
    "description": "",
    "latitude": "46.2543387",
    "longitude": "14.4883962"
  },
  {
    "d34_mid": 17468537,
    "d34_uime": "OŠ D.Jenko",
    "n8": 106003,
    "address": "Krvavška cesta 4, Cerklje na Gor. II, 4207 Cerklje na Gorenjskem",
    "description": "",
    "latitude": "46.2543387",
    "longitude": "14.4883962"
  },
  {
    "d34_mid": 17469193,
    "d34_uime": "Vaški dom",
    "n8": 106004,
    "address": "Češnjevek 11 a, 4207 Cerklje na Gorenjskem",
    "description": "",
    "latitude": "46.2635187",
    "longitude": "14.4694211"
  },
  {
    "d34_mid": 17469169,
    "d34_uime": "Podblica, Gasilski dom Besnica",
    "n8": 105021,
    "address": "Na hribu 7, 4201 Spodnja Besnica",
    "description": "",
    "latitude": "46.2578885",
    "longitude": "14.211404"
  },
  {
    "d34_mid": 17469088,
    "d34_uime": "Vaški dom Praprotna polica",
    "n8": 106006,
    "address": "Praprotna polica, 4207 Cerklje na Gorenjskem,",
    "description": "",
    "latitude": "46.253584",
    "longitude": "14.4521502"
  },
  {
    "d34_mid": 17469215,
    "d34_uime": "Vaški dom Poženik",
    "n8": 106007,
    "address": "Poženik 6, 4207 Cerklje na Gorenjskem",
    "description": "",
    "latitude": "46.2504249",
    "longitude": "14.5105664"
  },
  {
    "d34_mid": 17469223,
    "d34_uime": "Gasilski dom Sp.Brnik,",
    "n8": 106008,
    "address": "Spodnji Brnik 5a, 4207 Cerklje na Gorenjskem",
    "description": "",
    "latitude": "46.23048790000001",
    "longitude": "14.4877521"
  },
  {
    "d34_mid": 17469762,
    "d34_uime": "Krajevni dom",
    "n8": 106009,
    "address": "Šenturška Gora 11, 4207 Cerklje na Gorenjskem.",
    "description": "",
    "latitude": "46.2584384",
    "longitude": "14.5454059"
  },
  {
    "d34_mid": 17469207,
    "d34_uime": "Gasilski dom",
    "n8": 106010,
    "address": "Štefanja Gora 30, 4207 Cerklje na Gorenjskem",
    "description": "",
    "latitude": "46.2868758",
    "longitude": "14.4849925"
  },
  {
    "d34_mid": 17468472,
    "d34_uime": "Gasilski dom",
    "n8": 106011,
    "address": "Velesovo 53, 4207 CERKLJE NA GORENJSKEM",
    "description": "",
    "latitude": "46.2656183",
    "longitude": "14.4521323"
  },
  {
    "d34_mid": 17468553,
    "d34_uime": "Osnovna šola,",
    "n8": 106012,
    "address": "Zalog pri Cerkljah 29, 4207 Cerklje na Gorenjskem",
    "description": "",
    "latitude": "46.2298863",
    "longitude": "14.5178301"
  },
  {
    "d34_mid": 17469096,
    "d34_uime": "Gasilski dom",
    "n8": 106013,
    "address": "Zgornji Brnik 8,  4207 Cerklje na Gorenjskem",
    "description": "",
    "latitude": "46.24107859999999",
    "longitude": "14.4842716"
  },
  {
    "d34_mid": 17469479,
    "d34_uime": "Kranjski vrtci-Enota Ostržek,",
    "n8": 106014,
    "address": "Golnik 54, 4204 Golnik",
    "description": "",
    "latitude": "46.32412189999999",
    "longitude": "14.3294576"
  },
  {
    "d34_mid": 17468839,
    "d34_uime": "OŠ Simon Jenko-telovadnica",
    "n8": 106015,
    "address": "Sr.vas-Goriče 1, 4204 Golnik",
    "description": "",
    "latitude": "46.3185572",
    "longitude": "14.3473001"
  },
  {
    "d34_mid": 17469738,
    "d34_uime": "Športni center Graben",
    "n8": 106016,
    "address": "Hrastje 209, 4000 Kranj",
    "description": "",
    "latitude": "46.2201296",
    "longitude": "14.3818113"
  },
  {
    "d34_mid": 17468812,
    "d34_uime": "Dom druž. pol. org.,",
    "n8": 106017,
    "address": "Tenetiše 80, 4204 GOLNIK",
    "description": "",
    "latitude": "46.2960437",
    "longitude": "14.3470992"
  },
  {
    "d34_mid": 17469487,
    "d34_uime": "Dom krajevne skupnosti",
    "n8": 106018,
    "address": "Trstenik 8 a,  4204 Golnik",
    "description": "",
    "latitude": "46.3159635",
    "longitude": "14.3677431"
  },
  {
    "d34_mid": 17468855,
    "d34_uime": "Gasilski dom Duplje",
    "n8": 106019,
    "address": "Zgornje Duplje 8, 4203 Zgornje Duplje",
    "description": "",
    "latitude": "46.3043548",
    "longitude": "14.2949502"
  },
  {
    "d34_mid": 17468847,
    "d34_uime": "Dom Janeza Filipiča",
    "n8": 106020,
    "address": "Kranjska c.1, Naklo I, 4202 Naklo",
    "description": "",
    "latitude": "46.2713875",
    "longitude": "14.3135103"
  },
  {
    "d34_mid": 17469495,
    "d34_uime": "Večnamenski objekt Naklo, ",
    "n8": 106021,
    "address": "Stara c. 61, Naklo II, 4202 Naklo",
    "description": "",
    "latitude": "46.2759991",
    "longitude": "14.3149153"
  },
  {
    "d34_mid": 17469509,
    "d34_uime": "Kulturni dom",
    "n8": 106022,
    "address": "Podbrezje 147, 4202 NAKLO",
    "description": "",
    "latitude": "46.302254",
    "longitude": "14.2754122"
  },
  {
    "d34_mid": 17496085,
    "d34_uime": "Brunarica TD Bašelj",
    "n8": 106023,
    "address": "Bašelj, 4205 Preddvor",
    "description": "",
    "latitude": "46.31470179999999",
    "longitude": "14.401216"
  },
  {
    "d34_mid": 17468871,
    "d34_uime": "Osnovna šola",
    "n8": 106024,
    "address": "Kokra 23, 4205 Preddvor",
    "description": "",
    "latitude": "46.3070925",
    "longitude": "14.5003559"
  },
  {
    "d34_mid": 17468880,
    "d34_uime": "Večnam. INFO center",
    "n8": 106025,
    "address": "Dvorski trg 3, 4205 Preddvor",
    "description": "",
    "latitude": "46.3020809",
    "longitude": "14.4223603"
  },
  {
    "d34_mid": 17468898,
    "d34_uime": "Pension Zaplata",
    "n8": 106026,
    "address": "Tupaliče 32, 4205 Preddvor,",
    "description": "",
    "latitude": "46.2936446",
    "longitude": "14.4302087"
  },
  {
    "d34_mid": 17469517,
    "d34_uime": "Dom krajanov",
    "n8": 106027,
    "address": "Zgornja Bela 67, 4205 Preddvor",
    "description": "",
    "latitude": "46.2993435",
    "longitude": "14.4017406"
  },
  {
    "d34_mid": 17468901,
    "d34_uime": "Gasilski dom",
    "n8": 106028,
    "address": "Luže 27, 4212 Visoko.",
    "description": "",
    "latitude": "46.2672324",
    "longitude": "14.4317201"
  },
  {
    "d34_mid": 17469541,
    "d34_uime": "Gasilsko društvo Olševek",
    "n8": 106029,
    "address": "Olševek 18, 4205 Preddvor.",
    "description": "",
    "latitude": "46.2794016",
    "longitude": "14.4376048"
  },
  {
    "d34_mid": 17469070,
    "d34_uime": "Gasilski dom",
    "n8": 106030,
    "address": "Prebačevo 63, 4000 Kranj",
    "description": "",
    "latitude": "46.21554219999999",
    "longitude": "14.3882103"
  },
  {
    "d34_mid": 17469703,
    "d34_uime": "Gasilski dom",
    "n8": 106031,
    "address": "Srednja vas pri Š. 68, 4208 Srednja vas pri Šenčurju",
    "description": "",
    "latitude": "46.255392",
    "longitude": "14.4253112"
  },
  {
    "d34_mid": 17468928,
    "d34_uime": "OŠ Šenčur I",
    "n8": 106032,
    "address": "Pipanova c.43, 4208 Šenčur ",
    "description": "",
    "latitude": "46.2486264",
    "longitude": "14.4189219"
  },
  {
    "d34_mid": 17469568,
    "d34_uime": "OŠ Šenčur II",
    "n8": 106033,
    "address": "Pipanova c. 43, 4208 Šenčur",
    "description": "",
    "latitude": "46.2486264",
    "longitude": "14.4189219"
  },
  {
    "d34_mid": 17469550,
    "d34_uime": "Dom krajanov",
    "n8": 106034,
    "address": "Visoko 67, 4212 Visoko",
    "description": "",
    "latitude": "46.2730166",
    "longitude": "14.4183505"
  },
  {
    "d34_mid": 17468936,
    "d34_uime": "Dom vaščanov Voglje",
    "n8": 106035,
    "address": "Na vasi 21, Voglje, 4208 ŠENČUR",
    "description": "",
    "latitude": "46.2140111",
    "longitude": "14.436972"
  },
  {
    "d34_mid": 17469576,
    "d34_uime": "Športno kulturni dom,",
    "n8": 106036,
    "address": "Voklo 28, 4208 Voklo",
    "description": "",
    "latitude": "46.21596719999999",
    "longitude": "14.4196757"
  },
  {
    "d34_mid": 17469584,
    "d34_uime": "Dom krajanov",
    "n8": 106037,
    "address": "Trboje 39, 4000 KRANJ ",
    "description": "",
    "latitude": "46.2001979",
    "longitude": "14.4087744"
  },
  {
    "d34_mid": 17468863,
    "d34_uime": "Gostilna Kanonir",
    "n8": 106038,
    "address": "Sp. Jezersko 5, 4206 Zgornje Jezersko",
    "description": "",
    "latitude": "46.3817001",
    "longitude": "14.4686931"
  },
  {
    "d34_mid": 17469525,
    "d34_uime": "Korotan",
    "n8": 106039,
    "address": "Zgornje Jezersko 57,  4206 Zg. Jezersko",
    "description": "",
    "latitude": "46.3930758",
    "longitude": "14.498498"
  },
  {
    "d34_mid": 17504665,
    "d34_uime": "Vaški gasilski dom",
    "n8": 106040,
    "address": "Hotemaže 80, 4205 Preddvor",
    "description": "",
    "latitude": "46.2817506",
    "longitude": "14.4221514"
  },
  {
    "d34_mid": 17468944,
    "d34_uime": "Osnovna šola Bistrica",
    "n8": 107001,
    "address": "Begunjska c. 2, Bistrica I, 4290 Tržič",
    "description": "",
    "latitude": "46.3568517",
    "longitude": "14.292562"
  },
  {
    "d34_mid": 17469592,
    "d34_uime": "Osnovna šola Bistrica",
    "n8": 107002,
    "address": "Begunjska c.2, Bistrica II,  4290 Tržič",
    "description": "",
    "latitude": "46.3583677",
    "longitude": "14.2936392"
  },
  {
    "d34_mid": 17469606,
    "d34_uime": "Dom krajanov",
    "n8": 107003,
    "address": "Brezje pri Tržiču 55,  4290 Tržič",
    "description": "",
    "latitude": "46.357179",
    "longitude": "14.275324"
  },
  {
    "d34_mid": 17468987,
    "d34_uime": "Dom krajanov",
    "n8": 107004,
    "address": "Jelendol 8,  4290 Tržič",
    "description": "",
    "latitude": "46.3985176",
    "longitude": "14.3446475"
  },
  {
    "d34_mid": 17469746,
    "d34_uime": "Krajevna skupnost ",
    "n8": 107005,
    "address": "Glavna cesta 24, Kovor, 4290 Tržič ",
    "description": "",
    "latitude": "46.3399796",
    "longitude": "14.2817668"
  },
  {
    "d34_mid": 17468995,
    "d34_uime": "Osnovna šola Križe",
    "n8": 107006,
    "address": "C. Kokrškega odreda 16, 4294 Križe",
    "description": "",
    "latitude": "46.3399654",
    "longitude": "14.2964512"
  },
  {
    "d34_mid": 17469622,
    "d34_uime": "Gasilski dom Leše",
    "n8": 107007,
    "address": "Leše 3,  4290 Tržič",
    "description": "",
    "latitude": "46.3558014",
    "longitude": "14.257036"
  },
  {
    "d34_mid": 17469711,
    "d34_uime": "Dom krajanov",
    "n8": 107008,
    "address": "Lom pod Storžič.56, 4290 Tržič .",
    "description": "",
    "latitude": "46.3502777",
    "longitude": "14.4047222"
  },
  {
    "d34_mid": 17469002,
    "d34_uime": "Dom krajanov",
    "n8": 107009,
    "address": "Podljubelj 242,  4290 Tržič",
    "description": "",
    "latitude": "46.3999776",
    "longitude": "14.2827986"
  },
  {
    "d34_mid": 17469649,
    "d34_uime": "Fundacija V.Drakslerja",
    "n8": 107010,
    "address": "Pristavška c.16, 4290 Tržič",
    "description": "",
    "latitude": "46.3495606",
    "longitude": "14.2979499"
  },
  {
    "d34_mid": 17469029,
    "d34_uime": "Krajevna skupnost Ravne",
    "n8": 107011,
    "address": "Pot na Zali Rovt 3, 4290 Tržič",
    "description": "",
    "latitude": "46.3688708",
    "longitude": "14.3071118"
  },
  {
    "d34_mid": 17469037,
    "d34_uime": "Dom krajanov",
    "n8": 107012,
    "address": "Sebenje 43, Križe,  4294 Tržič",
    "description": "",
    "latitude": "46.3309086",
    "longitude": "14.2998192"
  },
  {
    "d34_mid": 17469657,
    "d34_uime": "Krajevna skupnost",
    "n8": 107013,
    "address": "Senično 30, Križe, 4294 KRIŽE",
    "description": "",
    "latitude": "46.33236600000001",
    "longitude": "14.3165049"
  },
  {
    "d34_mid": 17469665,
    "d34_uime": "Galerija Atrij Občine Tržič",
    "n8": 107014,
    "address": "Trg svobode18, Tržič I, 4290 Tržič",
    "description": "",
    "latitude": "46.3635438",
    "longitude": "14.3089991"
  },
  {
    "d34_mid": 17469185,
    "d34_uime": "Društvo upokojencev Tržič,",
    "n8": 107015,
    "address": "Trg svobode18, Tržič II, 4290 Tržič",
    "description": "",
    "latitude": "46.3635438",
    "longitude": "14.3089991"
  },
  {
    "d34_mid": 17688413,
    "d34_uime": "Krajevna skupnost Godešič",
    "n8": 108001,
    "address": "Godešič 100, 4220 Škofja Loka",
    "description": "",
    "latitude": "46.1665892",
    "longitude": "14.3536339"
  },
  {
    "d34_mid": 17688022,
    "d34_uime": "Gasilski dom Virmaše",
    "n8": 108002,
    "address": "Virmaše 14, 4220 Škofja Loka",
    "description": "",
    "latitude": "46.17677339999999",
    "longitude": "14.3245979"
  },
  {
    "d34_mid": 17688642,
    "d34_uime": "Kulturni dom Sv. Duh",
    "n8": 108003,
    "address": "Sv. Duh 10, 4220 Škofja Loka",
    "description": "",
    "latitude": "46.1812903",
    "longitude": "14.3238673"
  },
  {
    "d34_mid": 17688421,
    "d34_uime": "OŠ Škofja Loka-Mesto",
    "n8": 108004,
    "address": "Šolska ulica 1, 4220 Škofja Loka",
    "description": "",
    "latitude": "46.1682081",
    "longitude": "14.3060275"
  },
  {
    "d34_mid": 17688057,
    "d34_uime": "Gasilski dom Škofja Loka",
    "n8": 108006,
    "address": "Studenec 5, 4220 Škofja Loka",
    "description": "",
    "latitude": "46.1655526",
    "longitude": "14.3092314"
  },
  {
    "d34_mid": 17688065,
    "d34_uime": "Osnovna šola Reteče",
    "n8": 108007,
    "address": "Reteče 43, 4220 Škofja Loka",
    "description": "",
    "latitude": "46.1568741",
    "longitude": "14.3682422"
  },
  {
    "d34_mid": 17688332,
    "d34_uime": "OŠ Cvetko Golar I.",
    "n8": 108008,
    "address": "Frankovo naselje 51, 4220 Škofja Loka",
    "description": "",
    "latitude": "46.169636",
    "longitude": "14.3291798"
  },
  {
    "d34_mid": 17688073,
    "d34_uime": "OŠ Cvetko Golar II.,",
    "n8": 108009,
    "address": "Frankovo naselje 51, 4220 Škofja Loka",
    "description": "",
    "latitude": "46.169636",
    "longitude": "14.3291798"
  },
  {
    "d34_mid": 17688081,
    "d34_uime": "OŠ Cvetko Golar III",
    "n8": 108010,
    "address": "Frankovo naselje 51, 4220 Škofja Loka",
    "description": "",
    "latitude": "46.169636",
    "longitude": "14.3291798"
  },
  {
    "d34_mid": 17688090,
    "d34_uime": "Gasilski dom Gosteče,",
    "n8": 108011,
    "address": "Gosteče 10, 4220 Škofja Loka",
    "description": "",
    "latitude": "46.1529513",
    "longitude": "14.3442673"
  },
  {
    "d34_mid": 17688464,
    "d34_uime": "OŠ Ivana Groharja",
    "n8": 108012,
    "address": "Podlubnik 1, 4220 Škofja Loka",
    "description": "",
    "latitude": "46.16989969999999",
    "longitude": "14.2999235"
  },
  {
    "d34_mid": 17688103,
    "d34_uime": "Sokolski dom Škofja Loka",
    "n8": 108013,
    "address": "Mestni trg 17, 4220 Škofja Loka",
    "description": "",
    "latitude": "46.16465729999999",
    "longitude": "14.3074854"
  },
  {
    "d34_mid": 17688669,
    "d34_uime": "Puštalski grad,",
    "n8": 108014,
    "address": "Puštal 21, 4220 Škofja Loka",
    "description": "",
    "latitude": "46.16217899999999",
    "longitude": "14.3111974"
  },
  {
    "d34_mid": 17688120,
    "d34_uime": "Trgovina kmečki stroji",
    "n8": 108015,
    "address": "Sv. Barbara 23, 4220 Škofja Loka",
    "description": "",
    "latitude": "46.1133528",
    "longitude": "14.3131925"
  },
  {
    "d34_mid": 17688138,
    "d34_uime": "Krajevna skupnost Podlubnik",
    "n8": 108016,
    "address": "Podlubnik 139, 4220 Škofja Loka",
    "description": "",
    "latitude": "46.1730641",
    "longitude": "14.2947268"
  },
  {
    "d34_mid": 17688367,
    "d34_uime": "Tržnica Škofja Loka",
    "n8": 108018,
    "address": "Partizanska cesta 1, 4220 Škofja Loka",
    "description": "",
    "latitude": "46.1694981",
    "longitude": "14.3095127"
  },
  {
    "d34_mid": 17688359,
    "d34_uime": "Zadružni dom Log nad Škofjo Loko",
    "n8": 108020,
    "address": "Log nad Šk.L.31, 4220 Škofja Loka",
    "description": "",
    "latitude": "46.1671294",
    "longitude": "14.3058337"
  },
  {
    "d34_mid": 17688456,
    "d34_uime": "Šola Gabrk",
    "n8": 108021,
    "address": "Gabrk 1, 4220 Škofja Loka",
    "description": "",
    "latitude": "46.1371437",
    "longitude": "14.248798"
  },
  {
    "d34_mid": 17688693,
    "d34_uime": "Zadružni dom Zminec",
    "n8": 108022,
    "address": "Zminec 35, 4220 Škofja Loka",
    "description": "",
    "latitude": "46.1481927",
    "longitude": "14.2863192"
  },
  {
    "d34_mid": 17688499,
    "d34_uime": "Krajevna skupnost Lenart",
    "n8": 108023,
    "address": "Sv. Lenart 21, 4227 Selca",
    "description": "",
    "latitude": "46.1873973",
    "longitude": "14.1989261"
  },
  {
    "d34_mid": 17688529,
    "d34_uime": "Osnovna šola Bukovščica",
    "n8": 108024,
    "address": "Bukovščica 4, 4227 Selca",
    "description": "",
    "latitude": "46.2229645",
    "longitude": "14.2617233"
  },
  {
    "d34_mid": 17710044,
    "d34_uime": "Osnovna šola Bukovica",
    "n8": 108025,
    "address": "Bukovica 20, 4227 Selca",
    "description": "",
    "latitude": "46.1988821",
    "longitude": "14.2449934"
  },
  {
    "d34_mid": 17687964,
    "d34_uime": "Rudnik Žirovski vrh-TODRAŽ",
    "n8": 109001,
    "address": "Todraž 1, 4224 Gorenja vas",
    "description": "",
    "latitude": "46.0827193",
    "longitude": "14.1612886"
  },
  {
    "d34_mid": 17688375,
    "d34_uime": "Sokolski dom GORENJA VAS-mala dvorana",
    "n8": 109002,
    "address": "Poljan.c.87, 4224 Gorenja vas",
    "description": "",
    "latitude": "46.1057691",
    "longitude": "14.1437462"
  },
  {
    "d34_mid": 17688677,
    "d34_uime": "Gasilski dom HOTAVLJE",
    "n8": 109003,
    "address": "Hotavlje 112, 4224 Gorenja vas",
    "description": "",
    "latitude": "46.11543959999999",
    "longitude": "14.1167569"
  },
  {
    "d34_mid": 17688383,
    "d34_uime": "Osnovna šola LESKOVICA",
    "n8": 109004,
    "address": "Leskovica 1, 4224 Gorenja vas",
    "description": "",
    "latitude": "46.1457744",
    "longitude": "14.0875891"
  },
  {
    "d34_mid": 17688685,
    "d34_uime": "Osnovna šola JAVORJE",
    "n8": 109005,
    "address": "Javorje 6,  4223 Poljane nad Škofjo Loko",
    "description": "",
    "latitude": "46.1584103",
    "longitude": "14.177593"
  },
  {
    "d34_mid": 17687972,
    "d34_uime": "Kulturni dom LUČINE",
    "n8": 109006,
    "address": "Lučine 11a, 4224 Gorenja vas",
    "description": "",
    "latitude": "46.0616194",
    "longitude": "14.1959864"
  },
  {
    "d34_mid": 17688391,
    "d34_uime": "Gasilski dom TREBIJA",
    "n8": 109007,
    "address": "Trebija 4, 4224 Gorenja vas",
    "description": "",
    "latitude": "46.0972341",
    "longitude": "14.1016197"
  },
  {
    "d34_mid": 17688316,
    "d34_uime": "Stavba ob župnišču v STARI OSELICI,",
    "n8": 109008,
    "address": "St.Oselica 33, 4225 Gorenja vas",
    "description": "",
    "latitude": "46.1009365",
    "longitude": "14.0781308"
  },
  {
    "d34_mid": 17687999,
    "d34_uime": "Kulturni dom POLJANE-pisarna Kraj.skup",
    "n8": 109009,
    "address": "Poljane 77, 4223 Poljane nad Škofjo Loko",
    "description": "",
    "latitude": "46.1226349",
    "longitude": "14.1814164"
  },
  {
    "d34_mid": 17688006,
    "d34_uime": "Demšar Slavko,",
    "n8": 109010,
    "address": "Dolenje Brdo 7, 4223 Poljane nad Škofjo Loko",
    "description": "",
    "latitude": "46.1245926",
    "longitude": "14.1477733"
  },
  {
    "d34_mid": 17688014,
    "d34_uime": "Šola MALENSKI VRH,",
    "n8": 109011,
    "address": "Malenski Vrh 14, 4223 Poljane nad Škofjo Loko",
    "description": "",
    "latitude": "46.1407951",
    "longitude": "14.1478677"
  },
  {
    "d34_mid": 17688324,
    "d34_uime": "Kulturna dvorana SOVODENJ",
    "n8": 109012,
    "address": "Sovodenj 23, 4225 Sovodenj",
    "description": "",
    "latitude": "46.0852916",
    "longitude": "14.0378395"
  },
  {
    "d34_mid": 17688154,
    "d34_uime": "Etnografski muzej DAVČA",
    "n8": 109013,
    "address": "Davča 25 a, Železniki",
    "description": "",
    "latitude": "46.17941",
    "longitude": "14.035434"
  },
  {
    "d34_mid": 17688537,
    "d34_uime": "Objekt na športnem igrišču v Dolenji vasi,",
    "n8": 109014,
    "address": "Češnjica 48, 4228 Železniki",
    "description": "",
    "latitude": "46.2261866",
    "longitude": "14.1750681"
  },
  {
    "d34_mid": 17688162,
    "d34_uime": "Osnovna šola DRAŽGOŠE",
    "n8": 109015,
    "address": "Dražgoše 35, 4228 Železniki",
    "description": "",
    "latitude": "46.2533421",
    "longitude": "14.1752273"
  },
  {
    "d34_mid": 17688545,
    "d34_uime": "Gasilski dom RUDNO",
    "n8": 109016,
    "address": "Rudno 5, 4228 Železniki",
    "description": "",
    "latitude": "46.2455419",
    "longitude": "14.1669949"
  },
  {
    "d34_mid": 17688189,
    "d34_uime": "Osnovna šola SELCA",
    "n8": 109017,
    "address": "Selca 95, 4227 Selca",
    "description": "",
    "latitude": "46.2238954",
    "longitude": "14.2008124"
  },
  {
    "d34_mid": 17688553,
    "d34_uime": "Berce Mirko",
    "n8": 109018,
    "address": "Lajše 12, 4227 Selca",
    "description": "",
    "latitude": "46.24411629999999",
    "longitude": "14.1942273"
  },
  {
    "d34_mid": 17688197,
    "d34_uime": "Krajevna skupnost SORICA",
    "n8": 109019,
    "address": "Spodnja Sorica 16, 4229 SORICA",
    "description": "",
    "latitude": "46.2188477",
    "longitude": "14.0296886"
  },
  {
    "d34_mid": 17688219,
    "d34_uime": "Kulturni dom ŽELEZNIKI",
    "n8": 109020,
    "address": "Trnje 39, 4228 Železniki",
    "description": "",
    "latitude": "46.2191562",
    "longitude": "14.1543973"
  },
  {
    "d34_mid": 17688561,
    "d34_uime": "Osnovna šola ŽELEZNIKI,",
    "n8": 109021,
    "address": "Otoki 13, 4228 Železniki",
    "description": "",
    "latitude": "46.2241303",
    "longitude": "14.1642262"
  },
  {
    "d34_mid": 17688227,
    "d34_uime": "Restavracija LUŠINA",
    "n8": 109022,
    "address": "Češnjica 54, 4228 Železniki",
    "description": "",
    "latitude": "46.22606930000001",
    "longitude": "14.1727297"
  },
  {
    "d34_mid": 17688570,
    "d34_uime": "Kulturni dom ZALI LOG",
    "n8": 109023,
    "address": "Zali Log 46 a, 4228 Železniki",
    "description": "",
    "latitude": "46.20646319999999",
    "longitude": "14.1015887"
  },
  {
    "d34_mid": 17688243,
    "d34_uime": "Objekt pri šoli v PODLONKU",
    "n8": 109024,
    "address": "Železniki",
    "description": "",
    "latitude": "46.22544",
    "longitude": "14.1692478"
  },
  {
    "d34_mid": 17688588,
    "d34_uime": "Osnovna šola MARTINJ VRH",
    "n8": 109025,
    "address": "Martinj vrh 21,  4228 Železniki",
    "description": "",
    "latitude": "46.187326",
    "longitude": "14.1407652"
  },
  {
    "d34_mid": 17688251,
    "d34_uime": "OŠ Žiri-večnam.prostor-novi d.",
    "n8": 109026,
    "address": "Jobstova c.22, 4226 ŽIRI",
    "description": "",
    "latitude": "46.0456566",
    "longitude": "14.108339"
  },
  {
    "d34_mid": 17688260,
    "d34_uime": "Družbeni dom Partizan ŽIRI",
    "n8": 109027,
    "address": "Loška c. 17, 4226 ŽIRI",
    "description": "",
    "latitude": "46.0497199",
    "longitude": "14.1092685"
  },
  {
    "d34_mid": 17688278,
    "d34_uime": "Zadružni dom ŽIRI",
    "n8": 109028,
    "address": "avla dvorane,Trg svobode 6, 4226 ŽIRI",
    "description": "",
    "latitude": "46.0473756",
    "longitude": "14.1107279"
  },
  {
    "d34_mid": 17688600,
    "d34_uime": "Trgovina na SELU",
    "n8": 109029,
    "address": "Selo 2, 4226 ŽIRI",
    "description": "",
    "latitude": "46.0513094",
    "longitude": "14.111887"
  },
  {
    "d34_mid": 17688286,
    "d34_uime": "Gasilski dom BREKOVICE",
    "n8": 109030,
    "address": "Brekovice 14, 4226 ŽIRI",
    "description": "",
    "latitude": "46.0178759",
    "longitude": "14.1238287"
  },
  {
    "d34_mid": 17688618,
    "d34_uime": "Gasilski dom RAČEVA",
    "n8": 109031,
    "address": "Račeva 41, 4226 ŽIRI",
    "description": "",
    "latitude": "46.0331223",
    "longitude": "14.1423462"
  },
  {
    "d34_mid": 17688294,
    "d34_uime": "Gasilski dom DOBRAČEVA",
    "n8": 109032,
    "address": "Loška c. 64, 4226 ŽIRI",
    "description": "",
    "latitude": "46.0559732",
    "longitude": "14.1110105"
  },
  {
    "d34_mid": 18028786,
    "d34_uime": "KRAJEVNI DOM MOTNIK",
    "n8": 110001,
    "address": "Glavni trg 24, 1241 Kamnik",
    "description": "",
    "latitude": "46.2263678",
    "longitude": "14.6122718"
  },
  {
    "d34_mid": 18028921,
    "d34_uime": "KULTURNI DOM ŠPITALIČ",
    "n8": 110002,
    "address": "KULTURNI DOM ŠPITALIČ",
    "description": "",
    "latitude": "46.21631929999999",
    "longitude": "14.8438721"
  },
  {
    "d34_mid": 18028930,
    "d34_uime": "Kulturno društvo Tuhinj",
    "n8": 110003,
    "address": "Laze v Tuhinju 4, 1219 Laze v Tuhinju",
    "description": "",
    "latitude": "46.2185032",
    "longitude": "14.7587974"
  },
  {
    "d34_mid": 18028948,
    "d34_uime": "KULTURNI DOM ŠMARTNO",
    "n8": 110004,
    "address": "KULTURNI DOM ŠMARTNO",
    "description": "",
    "latitude": "46.04609199999999",
    "longitude": "14.8422083"
  },
  {
    "d34_mid": 18028956,
    "d34_uime": "KS PŠAJNOVICA",
    "n8": 110005,
    "address": "Mali Rakitovec, 1223 Kamnik",
    "description": "",
    "latitude": "46.1976692",
    "longitude": "14.7769497"
  },
  {
    "d34_mid": 18028964,
    "d34_uime": "GASILSKI DOM SREDNJA VAS",
    "n8": 110006,
    "address": "SREDNJA VAS PRI KAMNIKU 23, 1241 KAMNIK ",
    "description": "",
    "latitude": "46.22555639999999",
    "longitude": "14.68209"
  },
  {
    "d34_mid": 18028972,
    "d34_uime": "PODRUŽNIČNA ŠOLA SELA PRI KAMNIKU",
    "n8": 110007,
    "address": "Sela pri Kamniku 5c, 1241 Kamnik",
    "description": "",
    "latitude": "46.2375688",
    "longitude": "14.6859769"
  },
  {
    "d34_mid": 18028999,
    "d34_uime": "OSNOVNA ŠOLA FRANA ALBREHTA",
    "n8": 110008,
    "address": "Nevlje 18, 1241 Kamnik",
    "description": "",
    "latitude": "46.231001",
    "longitude": "14.6250885"
  },
  {
    "d34_mid": 18029022,
    "d34_uime": "OSNOVNA ŠOLA FRANA ALBREHTA",
    "n8": 110010,
    "address": "podruž. VRANJA PEČ",
    "description": "",
    "latitude": "46.21047129999999",
    "longitude": "14.6714688"
  },
  {
    "d34_mid": 18029049,
    "d34_uime": "KS GODIČ",
    "n8": 110011,
    "address": "Godič 73b, 1242 Stahovica",
    "description": "",
    "latitude": "46.2539911",
    "longitude": "14.6096248"
  },
  {
    "d34_mid": 18029065,
    "d34_uime": "OSNOVNA ŠOLA STRANJE",
    "n8": 110013,
    "address": "Krivčevo 2, 1242 Stahovica",
    "description": "",
    "latitude": "46.2631434",
    "longitude": "14.6712084"
  },
  {
    "d34_mid": 18029081,
    "d34_uime": "OSNOVNA ŠOLA STRANJE",
    "n8": 110015,
    "address": "Zgornje Stranje 22, 1242 Stahovica",
    "description": "",
    "latitude": "46.2574933",
    "longitude": "14.6031113"
  },
  {
    "d34_mid": 18029090,
    "d34_uime": "ŠKD MEKINJE",
    "n8": 110016,
    "address": "Cankarjeva cesta 37, 1241 Kamnik",
    "description": "",
    "latitude": "46.2340495",
    "longitude": "14.6139585"
  },
  {
    "d34_mid": 18029103,
    "d34_uime": "OSNOVNA ŠOLA FRANA ALBREHTA",
    "n8": 110017,
    "address": "Tunjice 22c, 1241 Kamnik",
    "description": "",
    "latitude": "46.23784879999999",
    "longitude": "14.5793243"
  },
  {
    "d34_mid": 18029111,
    "d34_uime": "OSNOVNA ŠOLA MARIJE VERE",
    "n8": 110018,
    "address": "Ljubljanska cesta 16A, 1241 Kamnik",
    "description": "",
    "latitude": "46.2064472",
    "longitude": "14.5952788"
  },
  {
    "d34_mid": 18029120,
    "d34_uime": "OSNOVNA ŠOLA MARIJE VERE",
    "n8": 110019,
    "address": "Ljubljanska cesta 16A, 1241 Kamnik",
    "description": "",
    "latitude": "46.2064472",
    "longitude": "14.5952788"
  },
  {
    "d34_mid": 18029138,
    "d34_uime": "KULTURNI DOM ŠMARCA",
    "n8": 110020,
    "address": "Trg padlih borcev 2, 1241 Kamnik",
    "description": "",
    "latitude": "46.1897966",
    "longitude": "14.5957244"
  },
  {
    "d34_mid": 18029146,
    "d34_uime": "KULTURNI DOM VOLČJI POTOK",
    "n8": 110021,
    "address": "Volčji Potok 3, 1235 Radomlje",
    "description": "",
    "latitude": "46.1882856",
    "longitude": "14.6096784"
  },
  {
    "d34_mid": 16923800,
    "d34_uime": "Na balincu, Koseze",
    "n8": 207019,
    "address": null,
    "description": "",
    "latitude": "45.552628",
    "longitude": "14.24175"
  },
  {
    "d34_mid": 18029243,
    "d34_uime": "OBČINA KAMNIK",
    "n8": 110022,
    "address": "Glavni trg 24, 1241 Kamnik",
    "description": "",
    "latitude": "46.2263678",
    "longitude": "14.6122718"
  },
  {
    "d34_mid": 18029154,
    "d34_uime": "GIMNAZIJA IN SREDNJA ŠOLA RUDOLFA MAISTRA KAMNIK",
    "n8": 110023,
    "address": "Novi trg 41a 1241 Kamnik",
    "description": "",
    "latitude": "46.2209748",
    "longitude": "14.6116702"
  },
  {
    "d34_mid": 18029162,
    "d34_uime": "VRTEC SNEGULJČICA,",
    "n8": 110024,
    "address": "Kovinarska cesta 11,  1241 Kamnik",
    "description": "",
    "latitude": "46.2170001",
    "longitude": "14.6053718"
  },
  {
    "d34_mid": 18029189,
    "d34_uime": "KULTURNI DOM PODGORJE",
    "n8": 110025,
    "address": "KULTURNI DOM PODGORJE",
    "description": "",
    "latitude": "46.47184970000001",
    "longitude": "15.0884801"
  },
  {
    "d34_mid": 18029197,
    "d34_uime": "OSNOVNA ŠOLA FRANA ALBREHTA",
    "n8": 110026,
    "address": "Šolska ulica 1, 1230 Domžale",
    "description": "",
    "latitude": "46.1505532",
    "longitude": "14.5963753"
  },
  {
    "d34_mid": 18029219,
    "d34_uime": "GASILSKI DOM KRIŽ",
    "n8": 110027,
    "address": "GASILSKI DOM KRIŽ",
    "description": "",
    "latitude": "46.2010873",
    "longitude": "14.5669254"
  },
  {
    "d34_mid": 18029227,
    "d34_uime": "OSNOVNA ŠOLA KOMENDA MOSTE",
    "n8": 110028,
    "address": "Moste 40, 1218 Komenda",
    "description": "",
    "latitude": "46.1929641",
    "longitude": "14.5484292"
  },
  {
    "d34_mid": 18029235,
    "d34_uime": "OŠ KOMENDA MOSTE",
    "n8": 110029,
    "address": "GLAVARJEVA CESTA 37, 1218 Komenda",
    "description": "",
    "latitude": "46.2017523",
    "longitude": "14.5421949"
  },
  {
    "d34_mid": 19667707,
    "d34_uime": "Prostori LTO Laufar Cerkno",
    "n8": 111001,
    "address": "Močnikova ul. 2, 5282 Cerkno",
    "description": "",
    "latitude": "46.12875409999999",
    "longitude": "13.989762"
  },
  {
    "d34_mid": 19668053,
    "d34_uime": "Osnovna šola Cerkno-stranski vhod",
    "n8": 111002,
    "address": "Bevkova ul. 26, 5282 Cerkno",
    "description": "",
    "latitude": "46.1271056",
    "longitude": "13.9856075"
  },
  {
    "d34_mid": 19667723,
    "d34_uime": "Mlekarna Planina",
    "n8": 111005,
    "address": "Gregorciceva ulica 32 5222 Kobarid ",
    "description": "",
    "latitude": "46.245487",
    "longitude": "13.5847582"
  },
  {
    "d34_mid": 19668061,
    "d34_uime": "Mlekarna Labinje",
    "n8": 111006,
    "address": "Mlekarna Labinje",
    "description": "",
    "latitude": "46.141801",
    "longitude": "14.0019861"
  },
  {
    "d34_mid": 19668282,
    "d34_uime": "Prostovoljno gasilsko društvo Bukovo-Zakojca",
    "n8": 111008,
    "address": "Bukovo 29, 5282 Cerkno",
    "description": "",
    "latitude": "46.1484594",
    "longitude": "13.9062785"
  },
  {
    "d34_mid": 19668070,
    "d34_uime": "Zakojca - stara mlekarna",
    "n8": 111009,
    "address": "Zakojca - stara mlekarna",
    "description": "",
    "latitude": "46.166304",
    "longitude": "13.9301416"
  },
  {
    "d34_mid": 19667995,
    "d34_uime": "Osnovna šola Cerkno, PŠ Novaki",
    "n8": 111010,
    "address": "Dolenji Novaki 26, 5282 Cerkno",
    "description": "",
    "latitude": "46.1517413",
    "longitude": "14.0393048"
  },
  {
    "d34_mid": 19667740,
    "d34_uime": "Osnovna šola Orehek",
    "n8": 111011,
    "address": "Osnovna šola Orehek",
    "description": "",
    "latitude": "46.21909489999999",
    "longitude": "14.3646817"
  },
  {
    "d34_mid": 19668088,
    "d34_uime": "Večnamenski objekt Lazec",
    "n8": 111012,
    "address": "Večnamenski objekt Lazec",
    "description": "",
    "latitude": "46.0893665",
    "longitude": "13.9749056"
  },
  {
    "d34_mid": 19667766,
    "d34_uime": "Dom krajanov Kladje",
    "n8": 111014,
    "address": "Podlanišče 2, 5282 Podlanišče",
    "description": "",
    "latitude": "46.1100275",
    "longitude": "14.0121342"
  },
  {
    "d34_mid": 19668096,
    "d34_uime": "zgradba Rejc Viktorije",
    "n8": 111015,
    "address": "Jagršče 2, 5282 Jagršče",
    "description": "",
    "latitude": "46.0880749",
    "longitude": "13.9427194"
  },
  {
    "d34_mid": 19668240,
    "d34_uime": "Zgradba Makuc Stanka",
    "n8": 111016,
    "address": "Police 10, 5282 Police",
    "description": "",
    "latitude": "46.1279639",
    "longitude": "13.9881168"
  },
  {
    "d34_mid": 19668100,
    "d34_uime": "Prostori Okrepčevalnice Kurn k",
    "n8": 111018,
    "address": "Reka 1a, 5282 Cerkno",
    "description": "",
    "latitude": "46.1102728",
    "longitude": "13.9328078"
  },
  {
    "d34_mid": 19667782,
    "d34_uime": "Gasilski dom Šebrelje",
    "n8": 111019,
    "address": "Šebrelje 59a, 5282 Cerkno",
    "description": "",
    "latitude": "46.092144",
    "longitude": "13.9169071"
  },
  {
    "d34_mid": 19667804,
    "d34_uime": "Kulturni dom Ravne",
    "n8": 111021,
    "address": "Večnamenski objekt Poče",
    "description": "",
    "latitude": "46.1535558",
    "longitude": "13.9848795"
  },
  {
    "d34_mid": 19668002,
    "d34_uime": "Kulturni dom Ravne",
    "n8": 111023,
    "address": "Gledališka pot 1, 2390 Ravne na Koroškem",
    "description": "",
    "latitude": "46.546066",
    "longitude": "14.9663638"
  },
  {
    "d34_mid": 19667812,
    "d34_uime": "Gasilski dom Zakriž",
    "n8": 111024,
    "address": "Zakriž 12, 5282 Cerkno",
    "description": "",
    "latitude": "46.1328861",
    "longitude": "13.9725843"
  },
  {
    "d34_mid": 19668134,
    "d34_uime": "Mladinski center Idrija",
    "n8": 111026,
    "address": "Ulica IX. korpusa 17, 5280 Idrija",
    "description": "",
    "latitude": "46.0024589",
    "longitude": "14.0235019"
  },
  {
    "d34_mid": 19667847,
    "d34_uime": "Mestna knjižnica Idrija",
    "n8": 111028,
    "address": "Ulica sv. Barbare 4-5, 5280 Idrija",
    "description": "",
    "latitude": "46.0005436",
    "longitude": "14.0217326"
  },
  {
    "d34_mid": 19667855,
    "d34_uime": "Gimnazija J.Vega",
    "n8": 111029,
    "address": "Študentovska ul. 16, 5280 Idrija",
    "description": "",
    "latitude": "46.0015327",
    "longitude": "14.0191167"
  },
  {
    "d34_mid": 19667863,
    "d34_uime": "Osnovna šola Idrija",
    "n8": 111032,
    "address": "Lapajnetova ul. 50, 5280 Idrija",
    "description": "",
    "latitude": "46.0018942",
    "longitude": "14.0274644"
  },
  {
    "d34_mid": 19667871,
    "d34_uime": "Balinarski klub",
    "n8": 111034,
    "address": "Gregorčičeva ulica 8, 5280 Idrija",
    "description": "",
    "latitude": "45.9966143",
    "longitude": "14.0337048"
  },
  {
    "d34_mid": 19668274,
    "d34_uime": "Dom upokojencev Idrija",
    "n8": 111035,
    "address": "Arkova ulica 4, 5280 Idrija",
    "description": "",
    "latitude": "46.0025691",
    "longitude": "14.0295014"
  },
  {
    "d34_mid": 19667898,
    "d34_uime": "Dom upokojencev",
    "n8": 111036,
    "address": "Vojkova ul. 35, 5280 Idrija",
    "description": "",
    "latitude": "46.01970739999999",
    "longitude": "14.0297239"
  },
  {
    "d34_mid": 19668029,
    "d34_uime": "Gostilna Pri Fežnarju (Likar Ana),",
    "n8": 111037,
    "address": "Idrijska Bela 14, 5280 Idrija",
    "description": "",
    "latitude": "45.9722012",
    "longitude": "13.9920822"
  },
  {
    "d34_mid": 19668177,
    "d34_uime": "V zgradbi Gantar Vlada",
    "n8": 111038,
    "address": "Čekovnik 15 (Pod bregom)",
    "description": "",
    "latitude": "45.9782904",
    "longitude": "14.0022356"
  },
  {
    "d34_mid": 19667880,
    "d34_uime": "Prostovoljno gasilsko društvo Vojsko",
    "n8": 111039,
    "address": "Vojsko 50, 5280 Idrija",
    "description": "",
    "latitude": "46.0266944",
    "longitude": "13.916205"
  },
  {
    "d34_mid": 19667901,
    "d34_uime": "Kulturni dom v Sp. Idriji",
    "n8": 111041,
    "address": "Na vasi 34, 5281 Idrija",
    "description": "",
    "latitude": "46.031861",
    "longitude": "14.0265681"
  },
  {
    "d34_mid": 19668193,
    "d34_uime": "Osnovna šola",
    "n8": 111042,
    "address": "Šolska ul. 9, Spodnja Idrija,  5280 Idrija",
    "description": "",
    "latitude": "46.0339387",
    "longitude": "14.022117"
  },
  {
    "d34_mid": 19667910,
    "d34_uime": "Osnovna šola Kanomlja",
    "n8": 111044,
    "address": "Šolska ulica 9, 5281 Spodnja Idrija",
    "description": "",
    "latitude": "46.0339387",
    "longitude": "14.022117"
  },
  {
    "d34_mid": 19667928,
    "d34_uime": "Zadružni dom",
    "n8": 111046,
    "address": "Idrijske Krnice 26, 5281 Idrija",
    "description": "",
    "latitude": "46.0497771",
    "longitude": "13.9529864"
  },
  {
    "d34_mid": 19667936,
    "d34_uime": "Zgradba Franca Podobnika",
    "n8": 111047,
    "address": "Masore 11, 5282 Cerkno",
    "description": "",
    "latitude": "46.1256",
    "longitude": "13.9817"
  },
  {
    "d34_mid": 19668215,
    "d34_uime": "Gasilski dom na Sp. Vrsniku",
    "n8": 111048,
    "address": "Spodnji Vrsnik 9, 5281 Spodnja Idrija",
    "description": "",
    "latitude": "46.0187089",
    "longitude": "14.0987805"
  },
  {
    "d34_mid": 19668045,
    "d34_uime": "Osnovna šola v Ledinah",
    "n8": 111050,
    "address": "Ledine 10, 5281 Spodnja Idrija",
    "description": "",
    "latitude": "46.0404315",
    "longitude": "14.0571876"
  },
  {
    "d34_mid": 19668223,
    "d34_uime": "Osnovna šola Črni Vrh",
    "n8": 111051,
    "address": "Črni Vrh 95, 5274 ČRNI VRH NAD IDRIJO",
    "description": "",
    "latitude": "45.9244927",
    "longitude": "14.0460652"
  },
  {
    "d34_mid": 19668231,
    "d34_uime": "Dvorana gasilskega doma v Doleh",
    "n8": 111054,
    "address": "Dole 1c, 5280 Idrija",
    "description": "",
    "latitude": "45.9966216",
    "longitude": "14.0693292"
  },
  {
    "d34_mid": 19668266,
    "d34_uime": "Osnovna šola Zavratec",
    "n8": 111055,
    "address": "Zavratec 1, 1373 Rovte",
    "description": "",
    "latitude": "45.9908982",
    "longitude": "14.1300391"
  },
  {
    "d34_mid": 19667979,
    "d34_uime": "Osnovna šola Godovič",
    "n8": 111056,
    "address": "Godovič 35b, 5275 Godovič",
    "description": "",
    "latitude": "45.9578142",
    "longitude": "14.0933905"
  },
  {
    "d34_mid": 19893359,
    "d34_uime": "Turistična pisarna na Logu v Trenti",
    "n8": 201001,
    "address": "Trenta 41, 5232 Soča",
    "description": "",
    "latitude": "46.3824173",
    "longitude": "13.7544"
  },
  {
    "d34_mid": 19893367,
    "d34_uime": "Osnovna šola Soča",
    "n8": 201002,
    "address": "Soča 28, 5232 SOČA ",
    "description": "",
    "latitude": "46.3427029",
    "longitude": "13.6682515"
  },
  {
    "d34_mid": 19893375,
    "d34_uime": "Prostor krajevne skupnosti",
    "n8": 201003,
    "address": "Kal-Koritnica 35, 5230 Kal-Koritnica",
    "description": "",
    "latitude": "46.3365231",
    "longitude": "13.5806304"
  },
  {
    "d34_mid": 19893383,
    "d34_uime": "Osnovna šola Bovec",
    "n8": 201004,
    "address": "Trg golobarskih žrtev 17, 5230 Bovec",
    "description": "",
    "latitude": "46.3386804",
    "longitude": "13.5527614"
  },
  {
    "d34_mid": 19893391,
    "d34_uime": "Kulturni dom Bovec",
    "n8": 201005,
    "address": "Ledina 6, 5230 Bovec",
    "description": "",
    "latitude": "46.3368792",
    "longitude": "13.5534654"
  },
  {
    "d34_mid": 19893405,
    "d34_uime": "Kulturni dom Bovec",
    "n8": 201006,
    "address": "Ledina 6, 5230 Bovec",
    "description": "",
    "latitude": "46.3368792",
    "longitude": "13.5534654"
  },
  {
    "d34_mid": 19893421,
    "d34_uime": "Kulturni dom,",
    "n8": 201008,
    "address": "Log pod Mangartom 54, 5231 Log pod Mangartom",
    "description": "",
    "latitude": "46.4057561",
    "longitude": "13.6025548"
  },
  {
    "d34_mid": 19893430,
    "d34_uime": "stara mlekarna ",
    "n8": 201009,
    "address": "Čezsoča 94, 5230 Bovec",
    "description": "",
    "latitude": "46.3202393",
    "longitude": "13.5467281"
  },
  {
    "d34_mid": 19893448,
    "d34_uime": "Stanovanjska hiša",
    "n8": 201010,
    "address": "Log Čezsoški 21(last Rot Selme), 5224 Log Čezsoški",
    "description": "",
    "latitude": "46.31090589999999",
    "longitude": "13.4897485"
  },
  {
    "d34_mid": 19893456,
    "d34_uime": "Osnovna šola Žaga,",
    "n8": 201011,
    "address": "Žaga 29, 5224 Žaga",
    "description": "",
    "latitude": "46.3029962",
    "longitude": "13.481409"
  },
  {
    "d34_mid": 19893464,
    "d34_uime": "Prostori GD Srpenica",
    "n8": 201012,
    "address": "Srpenica 80a, 5224 Srpenica",
    "description": "",
    "latitude": "46.291327",
    "longitude": "13.4994"
  },
  {
    "d34_mid": 19893472,
    "d34_uime": "Bivša mlekarnica",
    "n8": 201013,
    "address": "Trnovo ob Soči 41, 5222 Trnovo ob Soči",
    "description": "",
    "latitude": "46.2803403",
    "longitude": "13.5514595"
  },
  {
    "d34_mid": 19893499,
    "d34_uime": "Večnamenski objekt",
    "n8": 201014,
    "address": "Logje 4, 5223 Breginj",
    "description": "",
    "latitude": "46.2647",
    "longitude": "13.4278"
  },
  {
    "d34_mid": 19893502,
    "d34_uime": "Gasilski dom Breginj,",
    "n8": 201015,
    "address": "Breginj 92, 5223 Breginj",
    "description": "",
    "latitude": "46.2622586",
    "longitude": "13.4275873"
  },
  {
    "d34_mid": 19893529,
    "d34_uime": "Večnamenski objekt",
    "n8": 201016,
    "address": "Sedlo 29, 5223 Breginj",
    "description": "",
    "latitude": "46.2535926",
    "longitude": "13.4388028"
  },
  {
    "d34_mid": 19893537,
    "d34_uime": "Gostilna Kuzma",
    "n8": 201018,
    "address": "Borjana 19, 5223 Breginj",
    "description": "",
    "latitude": "46.256142",
    "longitude": "13.4830675"
  },
  {
    "d34_mid": 19893545,
    "d34_uime": "Prostori KS",
    "n8": 201019,
    "address": "Prostori KS Podbela, Borjana 26, 5223 Breginj na Biziju",
    "description": "",
    "latitude": "46.2456918",
    "longitude": "13.4551319"
  },
  {
    "d34_mid": 19893561,
    "d34_uime": "Zbiralnica mleka",
    "n8": 201021,
    "address": "Potoki 6, Potoki 5222 Kobarid",
    "description": "",
    "latitude": "46.2537774",
    "longitude": "13.5064424"
  },
  {
    "d34_mid": 19893570,
    "d34_uime": "Večnamenski objekt ",
    "n8": 201022,
    "address": "Staro selo 54, 5222 KOBARID",
    "description": "",
    "latitude": "46.2467021",
    "longitude": "13.5303296"
  },
  {
    "d34_mid": 19893588,
    "d34_uime": "Dom A. Manfrede",
    "n8": 201023,
    "address": "Kobarid, Gregorčičeva ul. 20,  5222 Kobarid",
    "description": "",
    "latitude": "46.2459677",
    "longitude": "13.5825769"
  },
  {
    "d34_mid": 19893596,
    "d34_uime": "Kulturni dom Kobarid",
    "n8": 201024,
    "address": "Stresova ulica 2, 5222 Kobarid",
    "description": "",
    "latitude": "46.2475205",
    "longitude": "13.5771231"
  },
  {
    "d34_mid": 19893618,
    "d34_uime": "Prostor ob športnem igrišču",
    "n8": 201025,
    "address": "Sužid",
    "description": "",
    "latitude": "46.2418227",
    "longitude": "13.5515302"
  },